codiceistat,siglaprov,comune,localita,indirizzo,long,lat
051001,AR,ANGHIARI,ANGHIARI,CORSO GIACOMO MATTEOTTI,12.054382,43.540994
051001,AR,ANGHIARI,,EX STRADA PROVINCIALE PER PIEVE SANTO STEFANO,12.035901,43.577601
051001,AR,ANGHIARI,ANGHIARI,IL POGGIOLINO,12.056916,43.541069
051001,AR,ANGHIARI,VALIALLE,LOCALITA' CASALE,12.033668,43.525618
051001,AR,ANGHIARI,,LOCALITA' CASALE,12.001381,43.514983
051001,AR,ANGHIARI,BAGNAIA,LOCALITA' CATIGLIANO,12.056313,43.479551
051001,AR,ANGHIARI,CATIGLIANO,LOCALITA' CATIGLIANO,12.070864,43.501967
051001,AR,ANGHIARI,,LOCALITA' CATIGLIANO,12.058015,43.476300
051001,AR,ANGHIARI,SCHEGGIA,LOCALITA' LA SCHEGGIA,11.964414,43.548000
051001,AR,ANGHIARI,,LOCALITA' LA SCHEGGIA,11.973818,43.546277
051001,AR,ANGHIARI,CARMINE,LOCALITA' MOTINA,12.026449,43.565582
051001,AR,ANGHIARI,,LOCALITA' MOTINA,12.041553,43.563259
051001,AR,ANGHIARI,BAGNOLO II,LOCALITA' PONTE ALLA PIERA,12.016660,43.586236
051001,AR,ANGHIARI,PONTE ALLA PIERA,LOCALITA' PONTE ALLA PIERA,11.991987,43.586158
051001,AR,ANGHIARI,BERTINE,LOCALITA' SAN LEO,12.086277,43.529008
051001,AR,ANGHIARI,TUBBIANO,LOCALITA' SAN LEO,12.082186,43.535169
051001,AR,ANGHIARI,,LOCALITA' SAN LEO,12.094458,43.527630
051001,AR,ANGHIARI,FOSSA,LOCALITA' SAN LORENZO,12.045878,43.528035
051001,AR,ANGHIARI,SAN LORENZO,LOCALITA' SAN LORENZO,12.064796,43.522541
051001,AR,ANGHIARI,,LOCALITA' SAN LORENZO,12.065075,43.525946
051001,AR,ANGHIARI,MULINELLO,LOCALITA' SANTO STEFANO,12.077929,43.543549
051001,AR,ANGHIARI,,LOCALITA' SANTO STEFANO,12.081550,43.544844
051001,AR,ANGHIARI,BAGNOLO I,LOCALITA' TAVERNELLE,12.024473,43.557302
051001,AR,ANGHIARI,CAPPUCCINI DI MONTAUTO,LOCALITA' TAVERNELLE,12.013553,43.552094
051001,AR,ANGHIARI,GUALCHIERA (BAGNOLO),LOCALITA' TAVERNELLE,12.018579,43.565120
051001,AR,ANGHIARI,,LOCALITA' TAVERNELLE,12.013533,43.548187
051001,AR,ANGHIARI,PALAZZO,LOCALITA' TOPPOLE,12.063635,43.506537
051001,AR,ANGHIARI,SCOIANO,LOCALITA' TOPPOLE,12.061651,43.509840
051001,AR,ANGHIARI,TOPPOLE,LOCALITA' TOPPOLE,12.023743,43.496359
051001,AR,ANGHIARI,,LOCALITA' TOPPOLE,12.029116,43.498962
051001,AR,ANGHIARI,VIAIO,LOCALITA' VIAIO,12.063601,43.567829
051001,AR,ANGHIARI,,LOCALITA' VIAIO,12.054477,43.573165
051001,AR,ANGHIARI,ANGHIARI,PIAZZA BALDACCIO,12.054693,43.540779
051001,AR,ANGHIARI,ANGHIARI,PIAZZA DEL POPOLO,12.057034,43.540638
051001,AR,ANGHIARI,ANGHIARI,PIAZZA DIVISIONE GARIBALDI,12.063615,43.542558
051001,AR,ANGHIARI,ANGHIARI,PIAZZA EDMONDO DE AMICIS,12.055211,43.540929
051001,AR,ANGHIARI,ANGHIARI,PIAZZA GOFFREDO MAMELI,12.056303,43.540713
051001,AR,ANGHIARI,ANGHIARI,PIAZZA II AGOSTO,12.061515,43.541122
051001,AR,ANGHIARI,ANGHIARI,PIAZZA IV NOVEMBRE,12.054388,43.541709
051001,AR,ANGHIARI,ANGHIARI,PIAZZETTA BADIA,12.056091,43.540632
051001,AR,ANGHIARI,ANGHIARI,PIAZZETTA DELLA CROCE,12.051409,43.540285
051001,AR,ANGHIARI,ANGHIARI,PIAZZETTA DELLA FONTE,12.054936,43.541060
051001,AR,ANGHIARI,,STRADA COMUNALE CA' DI GORO,11.987237,43.586462
051001,AR,ANGHIARI,,STRADA COMUNALE DEL BAGNOLO,12.024187,43.546722
051001,AR,ANGHIARI,,STRADA COMUNALE DI PONTE ALLA PIERA,11.995627,43.586993
051001,AR,ANGHIARI,,STRADA COMUNALE TOPPOLE,12.006762,43.521490
051001,AR,ANGHIARI,TAVERNELLE,STRADA PROVINCIALE DELLA LIBBIA (N.43),12.026577,43.543389
051001,AR,ANGHIARI,,STRADA PROVINCIALE DELLA LIBBIA (N.43),12.023909,43.545435
051001,AR,ANGHIARI,MOTINA,STRADA PROVINCIALE DI CAPRESE MICHELANGELO (N.47),12.037079,43.574392
051001,AR,ANGHIARI,,STRADA PROVINCIALE DI CAPRESE MICHELANGELO (N.47),12.035061,43.578393
051001,AR,ANGHIARI,,STRADA PROVINCIALE LIBBIA (N.43),11.930886,43.550249
051001,AR,ANGHIARI,,STRADA PROVINCIALE PER PONTE ALLA PIERA,12.021579,43.567170
051001,AR,ANGHIARI,SAN LEO,STRADA STATALE SENESE ARETINA (N.73),12.091723,43.534087
051001,AR,ANGHIARI,,STRADA STATALE SENESE ARETINA (N.73),12.090303,43.532499
051001,AR,ANGHIARI,,STRADA VICINALE DEL FILO,12.041848,43.570396
051001,AR,ANGHIARI,SAN LEO,STRADA VICINALE DEL GHETTO,12.096839,43.533872
051001,AR,ANGHIARI,,STRADA VICINALE DEL GHETTO,12.097510,43.533319
051001,AR,ANGHIARI,,STRADA VICINALE DEL GIOGO,12.084728,43.536575
051001,AR,ANGHIARI,,STRADA VICINALE DEL MULINACCIO,12.096371,43.537442
051001,AR,ANGHIARI,,STRADA VICINALE DI ALBIANO,12.037767,43.580105
051001,AR,ANGHIARI,,STRADA VICINALE DI CASANOVA,12.074874,43.537600
051001,AR,ANGHIARI,MOTINA,STRADA VICINALE DI MUTALE,12.039109,43.573229
051001,AR,ANGHIARI,,STRADA VICINALE DI PAIOLO,12.034308,43.575783
051001,AR,ANGHIARI,MOTINA,STRADA VICINALE DI RIMAGGIO,12.038708,43.574745
051001,AR,ANGHIARI,TUBBIANO,STRADA VICINALE DI TUBBIANO,12.082491,43.535312
051001,AR,ANGHIARI,PONTE ALLA PIERA,STRADA VICINALE SAVORGNANO,11.989400,43.586209
051001,AR,ANGHIARI,ANGHIARI,VIA ALESSANDRO VOLTA,12.062989,43.540917
051001,AR,ANGHIARI,ANGHIARI,VIA ANTERO MEOZZI,12.050069,43.541702
051001,AR,ANGHIARI,ANGHIARI,VIA ANTONIO DA ANGHIARI,12.048023,43.545387
051001,AR,ANGHIARI,,VIA ANTONIO DA ANGHIARI,12.048642,43.545763
051001,AR,ANGHIARI,ANGHIARI,VIA ANTONIO MEUCCI,12.063442,43.542033
051001,AR,ANGHIARI,ANGHIARI,VIA ANTONIO PACINOTTI,12.061122,43.542328
051001,AR,ANGHIARI,ANGHIARI,VIA CAMPO DELLA FIERA,12.054125,43.538769
051001,AR,ANGHIARI,ANGHIARI,VIA CRISTOFANO DA MODIGLIANA,12.053917,43.538402
051001,AR,ANGHIARI,ANGHIARI,VIA CUPA,12.060357,43.541714
051001,AR,ANGHIARI,TAVERNELLE,VIA DEI FABBRI,12.027540,43.543665
051001,AR,ANGHIARI,,VIA DEI FABBRI,12.027848,43.543765
051001,AR,ANGHIARI,ANGHIARI,VIA DEI GUARDIANI,12.054657,43.536860
051001,AR,ANGHIARI,ANGHIARI,VIA DEI MATASSI,12.055498,43.537092
051001,AR,ANGHIARI,ANGHIARI,VIA DEI TAGLIESCHI,12.056024,43.540553
051001,AR,ANGHIARI,TAVERNELLE,VIA DEI TINTORI,12.025485,43.542933
051001,AR,ANGHIARI,ANGHIARI,VIA DEL CARMINE,12.048694,43.543861
051001,AR,ANGHIARI,,VIA DEL CARMINE,12.046898,43.545693
051001,AR,ANGHIARI,ANGHIARI,VIA DEL CASTELLO ANTICO,12.057618,43.540675
051001,AR,ANGHIARI,ANGHIARI,VIA DEL COMUNE,12.064529,43.542797
051001,AR,ANGHIARI,ANGHIARI,VIA DEL CROCIFISSO,12.056117,43.535948
051001,AR,ANGHIARI,SAN LEO,VIA DEL GHETTO,12.096199,43.535038
051001,AR,ANGHIARI,ANGHIARI,VIA DEL GIOCO,12.059023,43.544646
051001,AR,ANGHIARI,,VIA DEL GIOCO,12.059135,43.544323
051001,AR,ANGHIARI,ANGHIARI,VIA DEL MOLIN BIANCO,12.062441,43.544704
051001,AR,ANGHIARI,,VIA DEL MOLIN BIANCO,12.065614,43.548165
051001,AR,ANGHIARI,ANGHIARI,VIA DEL PONTE DEI SOSPIRI,12.055827,43.545517
051001,AR,ANGHIARI,ANGHIARI,VIA DEL TEATRO,12.054728,43.541759
051001,AR,ANGHIARI,ANGHIARI,VIA DELLA BATTAGLIA,12.061314,43.543787
051001,AR,ANGHIARI,ANGHIARI,VIA DELLA BOZZIA,12.053192,43.540931
051001,AR,ANGHIARI,TAVERNELLE,VIA DELLA CHIESA,12.027033,43.544865
051001,AR,ANGHIARI,,VIA DELLA CHIESA,12.028333,43.545230
051001,AR,ANGHIARI,ANGHIARI,VIA DELLA FOSSA,12.053661,43.537621
051001,AR,ANGHIARI,,VIA DELLA FOSSA,12.051630,43.536240
051001,AR,ANGHIARI,ANGHIARI,VIA DELLA GIARDINELLA,12.057278,43.536289
051001,AR,ANGHIARI,ANGHIARI,VIA DELLA MISERICORDIA,12.057264,43.540979
051001,AR,ANGHIARI,ANGHIARI,VIA DELLA PROPOSITURA,12.055532,43.540090
051001,AR,ANGHIARI,ANGHIARI,VIA DELLA TOMBA,12.056630,43.540171
051001,AR,ANGHIARI,ANGHIARI,VIA DELLA TORRE,12.055958,43.540385
051001,AR,ANGHIARI,ANGHIARI,VIA DELL'ACQUEDOTTO,12.055072,43.541996
051001,AR,ANGHIARI,ANGHIARI,VIA DELLE MURA DI SOPRA,12.057805,43.540889
051001,AR,ANGHIARI,ANGHIARI,VIA DELLE MURA DI SOTTO,12.057761,43.540940
051001,AR,ANGHIARI,ANGHIARI,VIA DELL'INTOPPO,12.060387,43.539278
051001,AR,ANGHIARI,ANGHIARI,VIA DELLO SPIRITO SANTO,12.051684,43.542548
051001,AR,ANGHIARI,TAVERNELLE,VIA DELL'OSTERIA DI TAVERNELLE,12.027012,43.542187
051001,AR,ANGHIARI,SAN LEO,VIA DI CORSANO,12.092065,43.533254
051001,AR,ANGHIARI,,VIA DI CORSANO,12.091472,43.530033
051001,AR,ANGHIARI,ANGHIARI,VIA DI MARAVILLE,12.065539,43.540002
051001,AR,ANGHIARI,ANGHIARI,VIA DI MONTEBELLO,12.056886,43.537861
051001,AR,ANGHIARI,,VIA DI MONTEBELLO,12.057616,43.537885
051001,AR,ANGHIARI,MOTINA,VIA DI MOTINA,12.036692,43.572142
051001,AR,ANGHIARI,ANGHIARI,VIA DI PALAZZOLO,12.058683,43.541804
051001,AR,ANGHIARI,ANGHIARI,VIA DIACINTO CERBONCELLI,12.054806,43.537427
051001,AR,ANGHIARI,SAN LEO,VIA DOGANA VECCHIA,12.088146,43.535117
051001,AR,ANGHIARI,ANGHIARI,VIA DOMENICO GUERRI,12.049692,43.541016
051001,AR,ANGHIARI,,VIA ENRICO FERMI,12.095453,43.537021
051001,AR,ANGHIARI,ANGHIARI,VIA ERNESTO BRUCIAMACCHIE,12.058715,43.543980
051001,AR,ANGHIARI,ANGHIARI,VIA FAUSTO VAGNETTI,12.050858,43.543271
051001,AR,ANGHIARI,,VIA FAUSTO VAGNETTI,12.052265,43.545189
051001,AR,ANGHIARI,ANGHIARI,VIA FEDERICO NOMI,12.048339,43.543409
051001,AR,ANGHIARI,PONTE ALLA PIERA,VIA FOSSATINO,11.992479,43.586016
051001,AR,ANGHIARI,,VIA FOSSATINO,11.996280,43.585811
051001,AR,ANGHIARI,ANGHIARI,VIA FRANCESCO NENCI,12.057138,43.540903
051001,AR,ANGHIARI,ANGHIARI,VIA GENERALE CARLO CORSI,12.055240,43.541044
051001,AR,ANGHIARI,ANGHIARI,VIA GHIGNONI,12.050102,43.541301
051001,AR,ANGHIARI,ANGHIARI,VIA GIORDANO BRUNO,12.055673,43.540827
051001,AR,ANGHIARI,SAN LEO,VIA GIORGIO VASARI,12.086044,43.535165
051001,AR,ANGHIARI,ANGHIARI,VIA GIOVANNI ANGIOLO VALLINI,12.057491,43.537103
051001,AR,ANGHIARI,ANGHIARI,VIA GIROLAMO CANINI,12.047771,43.544426
051001,AR,ANGHIARI,ANGHIARI,VIA GIUSEPPE GARIBALDI,12.056005,43.540916
051001,AR,ANGHIARI,ANGHIARI,VIA GIUSEPPE MAZZINI,12.054939,43.541567
051001,AR,ANGHIARI,ANGHIARI,VIA GUGLIELMO MARCONI,12.066689,43.541224
051001,AR,ANGHIARI,,VIA GUGLIELMO MARCONI,12.072380,43.540161
051001,AR,ANGHIARI,ANGHIARI,VIA INFRANTOIO,12.061250,43.542259
051001,AR,ANGHIARI,SAN LEO,VIA LEONARDO DA VINCI,12.088510,43.534410
051001,AR,ANGHIARI,,VIA LEONARDO DA VINCI,12.079286,43.536801
051001,AR,ANGHIARI,SAN LEO,VIA LEONE MAGNO,12.092903,43.534723
051001,AR,ANGHIARI,ANGHIARI,VIA MARTIRI DELLA LIBBIA,12.049492,43.540248
051001,AR,ANGHIARI,ANGHIARI,VIA NOVA,12.055945,43.542215
051001,AR,ANGHIARI,ANGHIARI,VIA POGGIO DEL SOLE,12.052168,43.541919
051001,AR,ANGHIARI,ANGHIARI,VIA TRIESTE,12.055321,43.540518
051001,AR,ANGHIARI,ANGHIARI,VIA XVI MARZO,12.057187,43.535980
051001,AR,ANGHIARI,ANGHIARI,VIA XVIII AGOSTO,12.056217,43.542425
051001,AR,ANGHIARI,ANGHIARI,VIA XXV LUGLIO,12.056091,43.540632
051001,AR,ANGHIARI,ANGHIARI,VIALE ANTONIO GRAMSCI,12.055682,43.543033
051001,AR,ANGHIARI,ANGHIARI,VIALE MARTIRI ANTIFASCISTI,12.062198,43.543051
051001,AR,ANGHIARI,ANGHIARI,VICOLO CHIASSOLO,12.056091,43.540632
051001,AR,ANGHIARI,,VICOLO DEGLI AMORI,12.055317,43.540451
051001,AR,ANGHIARI,,VICOLO DEL DESTINO,12.055611,43.541063
051001,AR,ANGHIARI,,VICOLO DEL POETA,12.055937,43.540715
051001,AR,ANGHIARI,,VICOLO DELLA PIAZZOLA,12.057531,43.540782
051001,AR,ANGHIARI,ANGHIARI,VICOLO DELLA PIAZZUOLA,12.057403,43.540766
051001,AR,ANGHIARI,ANGHIARI,VICOLO DI MONTELORO,12.054528,43.541981
051002,AR,AREZZO,,ACQUASTRINA,11.819982,43.480154
051002,AR,AREZZO,AREZZO,AGAZZI,11.834555,43.446570
051002,AR,AREZZO,ANTRIA,ANTRIA,11.910517,43.498724
051002,AR,AREZZO,,ANTRIA,11.911177,43.502661
051002,AR,AREZZO,AREZZO,BAGNAIA,11.851955,43.443148
051002,AR,AREZZO,AREZZO,BAGNORO,11.893794,43.433166
051002,AR,AREZZO,BATTIFOLLE-RUSCELLO-POGGIOLA,BATTIFOLLE,11.782336,43.443432
051002,AR,AREZZO,,BATTIFOLLE,11.783078,43.445703
051002,AR,AREZZO,CHIASSA-TREGOZZANO,BENEDUCI,11.891298,43.516581
051002,AR,AREZZO,AREZZO,BORGO SANTA CROCE,11.888202,43.463279
051002,AR,AREZZO,,C. BANCHETTI,11.883999,43.506875
051002,AR,AREZZO,AREZZO,C. CAFAGGIO,11.850764,43.398041
051002,AR,AREZZO,AREZZO,C. CEPPE,11.869118,43.433671
051002,AR,AREZZO,,C. CEPPE,11.867128,43.432390
051002,AR,AREZZO,PONTE BURIANO-CINCELLI,C. FISCHIO,11.792481,43.507417
051002,AR,AREZZO,,C. GELLO,11.878176,43.430740
051002,AR,AREZZO,AREZZO,C. MADONNA,11.874135,43.444980
051002,AR,AREZZO,,C. MADONNA,11.871935,43.442090
051002,AR,AREZZO,SAN POLO,C. NUOVA,11.914944,43.484786
051002,AR,AREZZO,,C. VALERI,11.811861,43.484448
051002,AR,AREZZO,,CA' DEI FRATI,11.825084,43.454757
051002,AR,AREZZO,,CA' DEI MIGNANI,11.897512,43.478368
051002,AR,AREZZO,QUARATA,CAMPOLUCINO,11.827929,43.501799
051002,AR,AREZZO,,CAMPOLUCINO,11.828310,43.501654
051002,AR,AREZZO,AREZZO,CANTO DEI BACCI,11.879693,43.466100
051002,AR,AREZZO,AREZZO,CANTO DELLA CROCE,11.878880,43.467940
051002,AR,AREZZO,AREZZO,CASA BIANCA,11.895192,43.362603
051002,AR,AREZZO,AREZZO,CASA SALVI,11.874258,43.498353
051002,AR,SUBBIANO,CASACCIOLA-BELVEDERE,CASACCIOLA,11.897479,43.537573
051002,AR,AREZZO,AREZZO,CASAGNI,11.858190,43.368986
051002,AR,AREZZO,AREZZO,CASALE,11.879254,43.434599
051002,AR,AREZZO,,CASALE,11.880077,43.433257
051002,AR,AREZZO,,CASINA,11.879906,43.494196
051002,AR,AREZZO,AREZZO,CECILIANO,11.868861,43.494061
051002,AR,AREZZO,STROPPIELLO,CECILIANO,11.864923,43.504621
051002,AR,AREZZO,,CECILIANO,11.863563,43.499878
051002,AR,AREZZO,,CERRETA,11.901994,43.506401
051002,AR,AREZZO,CHIASSA-TREGOZZANO,CHIASSA SUPERIORE,11.897522,43.530922
051002,AR,AREZZO,CHIASSA-TREGOZZANO,CHIASSA VECCHIA,11.894695,43.526271
051002,AR,AREZZO,,CICALETO,11.861287,43.432155
051002,AR,AREZZO,CHIASSA-TREGOZZANO,CIGGIANO,11.895278,43.506280
051002,AR,AREZZO,,CIGGIANO,11.900256,43.506648
051002,AR,AREZZO,PONTE BURIANO-CINCELLI,CINCELLI,11.798004,43.511218
051002,AR,AREZZO,,CINCELLI,11.794902,43.508747
051002,AR,AREZZO,AREZZO,CORSO ITALIA,11.880769,43.463177
051002,AR,AREZZO,DONATIELLA,DONATIELLA,11.985407,43.420399
051002,AR,AREZZO,PALAZZO DEL PERO,DONATIELLA,11.978918,43.420922
051002,AR,AREZZO,,DONATIELLA,11.981511,43.421018
051002,AR,AREZZO,PALAZZO DEL PERO,DUE FIUMI,11.975730,43.421170
051002,AR,AREZZO,,EMICICLO GIOVANNI PAOLO II,11.883033,43.467674
051002,AR,AREZZO,AREZZO,FIUME,11.909237,43.460607
051002,AR,AREZZO,AREZZO,FONDACCIO,11.875465,43.385135
051002,AR,AREZZO,AREZZO,FRASSINETO,11.844047,43.356490
051002,AR,AREZZO,AREZZO,GALLERIA CASENTINO,11.875267,43.460143
051002,AR,AREZZO,AREZZO,GALLERIA VALDARNO,11.875267,43.460143
051002,AR,AREZZO,AREZZO,GALLERIA VALDICHIANA,11.875267,43.460143
051002,AR,AREZZO,,GALLERIA VALTIBERINA,11.875844,43.460145
051002,AR,AREZZO,AREZZO,GAVILLE,11.876205,43.437038
051002,AR,AREZZO,,GAVILLE,11.877202,43.438504
051002,AR,AREZZO,GIOVI-PONTE ALLA CHIASSA,GIOVI,11.863397,43.526851
051002,AR,AREZZO,,GIOVI,11.860502,43.530951
051002,AR,AREZZO,,GLI ORTALI,11.831945,43.492277
051002,AR,AREZZO,,GREPPE,11.831731,43.511680
051002,AR,AREZZO,CHIASSA-TREGOZZANO,GUARNIENTE,11.894614,43.534906
051002,AR,AREZZO,PUGLIA,IL BOSCHETTO,11.883315,43.503452
051002,AR,AREZZO,PRATANTICO-INDICATORE,IL BOSCO,11.815900,43.480633
051002,AR,AREZZO,,IL BOSCO,11.815426,43.481835
051002,AR,AREZZO,,IL CASTELLO,11.865795,43.369059
051002,AR,AREZZO,AREZZO,IL CUCULO,11.819240,43.457872
051002,AR,AREZZO,AREZZO,IL GHETTO,11.886765,43.366696
051002,AR,AREZZO,AREZZO,IL MOLINO,11.852148,43.405221
051002,AR,AREZZO,,IL MOLINO,11.852953,43.405161
051002,AR,AREZZO,,IL PERO,11.849855,43.367839
051002,AR,AREZZO,BATTIFOLLE-RUSCELLO-POGGIOLA,IL POGGIO,11.787540,43.440089
051002,AR,AREZZO,,IMI,11.819510,43.483151
051002,AR,AREZZO,PRATANTICO-INDICATORE,INDICATORE,11.800000,43.483122
051002,AR,AREZZO,AREZZO,IRSI,11.884238,43.364433
051002,AR,AREZZO,PRATANTICO-INDICATORE,ISMN,11.811075,43.481421
051002,AR,AREZZO,AREZZO,IVIL,11.859029,43.379312
051002,AR,AREZZO,CAMPOLUCI,LA CASACCIA,11.836233,43.507028
051002,AR,AREZZO,,LA CASINA,11.832684,43.503772
051002,AR,AREZZO,AREZZO,LA CHIANICELLA,11.871493,43.492048
051002,AR,AREZZO,AREZZO,LA FILANDRA,11.894465,43.478753
051002,AR,AREZZO,LA FILANDRA,LA FILANDRA,11.895691,43.481359
051002,AR,AREZZO,AREZZO,LA MOSSA,11.857246,43.441616
051002,AR,AREZZO,,LA MOSSA,11.854768,43.440214
051002,AR,AREZZO,,LA PODERINA,11.925471,43.459012
051002,AR,AREZZO,QUARATA,LA RIPA,11.828835,43.496188
051002,AR,AREZZO,AREZZO,LA TORRE,11.864227,43.437535
051002,AR,AREZZO,CHIASSA-TREGOZZANO,LA TORRE,11.900089,43.534350
051002,AR,AREZZO,,LA TORRE,11.902026,43.534551
051002,AR,AREZZO,AREZZO,LARGO BENADIR,11.878697,43.469542
051002,AR,AREZZO,AREZZO,LARGO GINO SEVERINI,11.892408,43.453396
051002,AR,AREZZO,AREZZO,LARGO II GIUGNO,11.871511,43.451690
051002,AR,AREZZO,AREZZO,LARGO LUIGI PIRANDELLO,11.867949,43.449936
051002,AR,AREZZO,,LARGO PRIMO MAGGIO,11.862151,43.463544
051002,AR,AREZZO,AREZZO,LARGO TEVERE,11.874693,43.455493
051002,AR,AREZZO,AREZZO,LARGO VENEZIA,11.876744,43.471150
051002,AR,AREZZO,AREZZO,LARGO XVI LUGLIO,11.869286,43.452491
051002,AR,AREZZO,AREZZO,LE CAPANNE,11.854470,43.367707
051002,AR,AREZZO,AREZZO,LE FOSSE,11.842137,43.445902
051002,AR,AREZZO,,LE FOSSE,11.858979,43.473529
051002,AR,AREZZO,,LE PIETRE,11.900039,43.441259
051002,AR,AREZZO,PIAN DEI BOSCHI,LE VENERINE,11.804538,43.483988
051002,AR,AREZZO,,LE VENERINE,11.803365,43.484653
051002,AR,AREZZO,,LOCALITÀ AGAZZI ALTO,11.829733,43.448130
051002,AR,AREZZO,,LOCALITÀ AGAZZI BASSO,11.836206,43.447784
051002,AR,AREZZO,,LOCALITÀ ALBIANO,12.009422,43.457208
051002,AR,AREZZO,AREZZO,LOCALITA' ANTRIA,11.894878,43.494101
051002,AR,AREZZO,,LOCALITA' ANTRIA,11.915435,43.504382
051002,AR,AREZZO,ANTRIA,LOCALITA' ANTRIA IL MULINO,11.911059,43.497124
051002,AR,AREZZO,,LOCALITÀ BADIA SAN VERIANO,12.021535,43.483248
051002,AR,AREZZO,,LOCALITÀ BADICROCE,11.943625,43.400618
051002,AR,AREZZO,AREZZO,LOCALITA' BAGNORO,11.894501,43.437293
051002,AR,AREZZO,BATTIFOLLE-RUSCELLO-POGGIOLA,LOCALITA' BATTIFOLLE,11.787265,43.443520
051002,AR,AREZZO,,LOCALITÀ BATTIFOLLE CINGUETTA,11.780298,43.442724
051002,AR,AREZZO,,LOCALITÀ BATTIFOLLE MEZZACOLLINA,11.781560,43.443800
051002,AR,AREZZO,,LOCALITÀ BATTIFOLLE PODIRINA BASSA,11.788814,43.445706
051002,AR,AREZZO,,LOCALITA' BIVIGNANO,12.023792,43.443491
051002,AR,AREZZO,GIOVI-PONTE ALLA CHIASSA,LOCALITA' BORGO A GIOVI,11.868552,43.529419
051002,AR,AREZZO,,LOCALITÀ BORGO A GIOVI,11.861963,43.536846
051002,AR,AREZZO,,LOCALITA' BUON RIPOSO,11.832174,43.512495
051002,AR,AREZZO,,LOCALITÀ BUON RIPOSO,11.830265,43.519428
051002,AR,AREZZO,,LOCALITÀ CALBI,11.912659,43.413265
051002,AR,AREZZO,,LOCALITÀ CALDESI,11.963536,43.377191
051002,AR,AREZZO,CASA ALLA SISA,LOCALITA' CAMPOLUCI,11.833458,43.514777
051002,AR,AREZZO,,LOCALITA' CAMPOLUCI,11.832174,43.512495
051002,AR,AREZZO,,LOCALITÀ CAMPOLUCI,11.840555,43.507616
051002,AR,AREZZO,,LOCALITÀ CAMPRIANO,11.907001,43.524810
051002,AR,AREZZO,,LOCALITA' CAPANNE DI RIGUTINO,11.854689,43.369743
051002,AR,AREZZO,,LOCALITA' CASA AL CINCIO,11.770115,43.489004
051002,AR,AREZZO,,LOCALITÀ CASA AL CINCIO,11.758339,43.494863
051002,AR,AREZZO,,LOCALITÀ CASANUOVA DI CECILIANO,11.873875,43.496794
051002,AR,AREZZO,,LOCALITA' CASTELLONCHIO,12.008548,43.397418
051002,AR,AREZZO,AREZZO,LOCALITA' CHIANI,11.814128,43.460373
051002,AR,AREZZO,AREZZO,LOCALITA' CHIANI,11.812516,43.460279
051002,AR,AREZZO,,LOCALITA' CHIANI,11.812941,43.462088
051002,AR,AREZZO,,LOCALITA' CHIASSA CALDERINO,11.875071,43.518411
051002,AR,AREZZO,,LOCALITA' CHIASSA SUPERIORE,11.917507,43.537467
051002,AR,AREZZO,,LOCALITA' CHIASSA TERRIO,11.896066,43.536016
051002,AR,AREZZO,,LOCALITÀ CHIASSA TERRIO,11.894502,43.531356
051002,AR,AREZZO,,LOCALITA' CHIASSA VECCHIA,11.901471,43.526306
051002,AR,AREZZO,,LOCALITA' CHIASSA VICO,11.886257,43.530576
051002,AR,AREZZO,,LOCALITÀ CHIASSA VICOLO,11.885010,43.527247
051002,AR,AREZZO,,LOCALITA' CINCELLI,11.804892,43.514267
051002,AR,AREZZO,,LOCALITA' CONTEA,11.924729,43.533734
051002,AR,AREZZO,,LOCALITÀ DI SANTA FIORA,11.920545,43.449928
051002,AR,AREZZO,,LOCALITA' FONTEMURA,11.913293,43.489549
051002,AR,AREZZO,,LOCALITÀ FONTIANO,11.852847,43.407047
051002,AR,AREZZO,AREZZO,LOCALITA' FORTEZZA MEDICEA,11.887194,43.465303
051002,AR,AREZZO,,LOCALITA' FRASSINETO,11.837023,43.361473
051002,AR,AREZZO,AREZZO,LOCALITA' GAVILLE LA CROCINA,11.876796,43.436884
051002,AR,AREZZO,,LOCALITA' GELLO,11.925246,43.507202
051002,AR,AREZZO,,LOCALITÀ GIOVI LE CAVE,11.877914,43.528753
051002,AR,AREZZO,,LOCALITA' GIOVI LE LASTRE,11.878860,43.541617
051002,AR,AREZZO,,LOCALITÀ GRAGNONE,11.907193,43.419149
051002,AR,AREZZO,,LOCALITÀ GRAGNONE BOSSI,11.908892,43.418076
051002,AR,AREZZO,,LOCALITA' GRATENA,11.770420,43.461320
051002,AR,AREZZO,,LOCALITA' IL BIVIO,11.844494,43.436707
051002,AR,AREZZO,,LOCALITÀ IL BIVIO,11.851384,43.437184
051002,AR,AREZZO,AREZZO,LOCALITA' IL MATTO,11.847142,43.410125
051002,AR,AREZZO,TERRAROSSA,LOCALITA' IL MATTO,11.841308,43.403855
051002,AR,AREZZO,,LOCALITÀ IL MATTO,11.848678,43.409411
051002,AR,AREZZO,,LOCALITÀ INDICATORE ZONA A,11.803895,43.481401
051002,AR,AREZZO,,LOCALITÀ INDICATORE ZONA B,11.800579,43.482805
051002,AR,AREZZO,,LOCALITÀ INDICATORE ZONA C,11.802195,43.479051
051002,AR,AREZZO,,LOCALITÀ INDICATORE ZONA D,11.806446,43.474507
051002,AR,AREZZO,,LOCALITÀ INDICATORE ZONA E,11.801263,43.480345
051002,AR,AREZZO,,LOCALITÀ INDICATORE ZONA F,11.799963,43.482104
051002,AR,AREZZO,,LOCALITA' LA MOSSA,11.868817,43.444882
051002,AR,AREZZO,,LOCALITÀ LE CASELLE RIGU,11.872560,43.371721
051002,AR,AREZZO,,LOCALITÀ LE LASTRE,11.979447,43.431401
051002,AR,AREZZO,AREZZO,LOCALITA' LE PIETRE,11.894456,43.447167
051002,AR,AREZZO,,LOCALITA' LIBBIA,11.915435,43.504382
051002,AR,AREZZO,,LOCALITÀ LIBBIA,11.895116,43.505614
051002,AR,AREZZO,,LOCALITA' LIGNANO,11.884567,43.414472
051002,AR,AREZZO,,LOCALITÀ MANZIANA,11.849321,43.374095
051002,AR,AREZZO,,LOCALITA' MARCENA,11.860533,43.544625
051002,AR,AREZZO,,LOCALITÀ MARCENA,11.857452,43.547063
051002,AR,AREZZO,MELICIANO,LOCALITA' MELICIANO,11.787906,43.523092
051002,AR,AREZZO,,LOCALITÀ MISCIANO,11.952884,43.492135
051002,AR,AREZZO,AREZZO,LOCALITA' MOLIN BIANCO,11.827609,43.455426
051002,AR,AREZZO,,LOCALITA' MOLIN BIANCO,11.835015,43.457714
051002,AR,AREZZO,,LOCALITA' MOLIN NUOVO,12.018940,43.460040
051002,AR,AREZZO,,LOCALITÀ MOLIN NUOVO,12.018502,43.460927
051002,AR,AREZZO,MONTE SOPRA RONDINE,LOCALITA' MONTE SOPRARONDINE,11.791678,43.499901
051002,AR,AREZZO,,LOCALITA' MONTE SOPRARONDINE,11.794230,43.497453
051002,AR,AREZZO,,LOCALITA' MONTONCELLO,11.901739,43.434241
051002,AR,AREZZO,,LOCALITA' MUCIAFORA,11.878860,43.541617
051002,AR,AREZZO,,LOCALITÀ MUCIAFORA,11.880956,43.534780
051002,AR,AREZZO,DOSSO,LOCALITA' MUGLIANO,11.811935,43.421725
051002,AR,AREZZO,MUGLIANO-FATTORIA MUGLIANO,LOCALITA' MUGLIANO,11.796075,43.421121
051002,AR,AREZZO,,LOCALITA' MUGLIANO,11.806758,43.428445
051002,AR,AREZZO,,LOCALITÀ MUGLIANO,11.934643,43.447990
051002,AR,AREZZO,LE POGGIACCE,LOCALITA' MULINELLI,11.929961,43.468208
051002,AR,AREZZO,MOLINELLI,LOCALITA' MULINELLI,11.938004,43.467682
051002,AR,AREZZO,,LOCALITÀ MULINELLI,11.940851,43.465347
051002,AR,AREZZO,,LOCALITÀ OLIVETA,11.859135,43.387528
051002,AR,AREZZO,,LOCALITÀ OTTAVO,11.882984,43.369120
051002,AR,AREZZO,LE LASTRE,LOCALITA' PALAZZO DEL PERO,11.979381,43.428313
051002,AR,AREZZO,,LOCALITÀ PALAZZO DEL PERO,11.967566,43.421853
051002,AR,AREZZO,,LOCALITÀ PALAZZO DEL PERO CERFONE,11.977511,43.421520
051002,AR,AREZZO,,LOCALITÀ PALAZZO DEL PERO 2 FIUMI,11.975636,43.421334
051002,AR,AREZZO,,LOCALITA' PATRIGNONE,11.852164,43.501365
051002,AR,AREZZO,,LOCALITÀ PENETO,11.936032,43.446658
051002,AR,AREZZO,MONTE PETROGNANO,LOCALITA' PETROGNANO,11.853891,43.512900
051002,AR,AREZZO,PETROGNANO BASSO,LOCALITA' PETROGNANO,11.848870,43.523938
051002,AR,AREZZO,,LOCALITÀ PETROGNANO,11.854770,43.519410
051002,AR,AREZZO,,LOCALITÀ PIAN D'USCIANO,11.966188,43.409570
051002,AR,AREZZO,,LOCALITÀ PIEVE A MAIANO,11.773475,43.483349
051002,AR,AREZZO,AREZZO,LOCALITA' PIEVE A QUARTO,11.852389,43.420169
051002,AR,AREZZO,,LOCALITÀ PIEVE A RANCO,12.036954,43.464846
051002,AR,AREZZO,,LOCALITÀ PISCINALE,11.871079,43.519196
051002,AR,AREZZO,RANCO DI FRASSINETO,LOCALITA' POGGIO CILIEGIO,11.847456,43.342882
051002,AR,AREZZO,,LOCALITÀ POGGIO CILIEGIO,11.857574,43.342503
051002,AR,AREZZO,BATTIFOLLE-RUSCELLO-POGGIOLA,LOCALITA' POGGIOLA,11.803568,43.454010
051002,AR,AREZZO,LA COSTA,LOCALITA' POGGIOLA,11.798295,43.457950
051002,AR,AREZZO,,LOCALITA' POGGIOLA,11.804244,43.455914
051002,AR,AREZZO,,LOCALITA' POMAIO,11.942582,43.471324
051002,AR,AREZZO,PONTE BURIANO-CINCELLI,LOCALITA' PONTE A BURIANO,11.794715,43.506921
051002,AR,AREZZO,,LOCALITÀ PONTE A CHIANI,11.818401,43.465041
051002,AR,AREZZO,,LOCALITÀ PONTE ALLA CHIASSA,11.864965,43.523593
051002,AR,AREZZO,,LOCALITÀ PONTE ALLA NAVE,11.808039,43.447774
051002,AR,AREZZO,,LOCALITA' POTI,11.957434,43.464335
051002,AR,AREZZO,PRATANTICO-INDICATORE,LOCALITA' PRATANTICO,11.818330,43.477775
051002,AR,AREZZO,PRATANTICO-INDICATORE,LOCALITA' PRATANTICO,11.810625,43.479425
051002,AR,AREZZO,,LOCALITA' PRATANTICO,11.818422,43.477343
051002,AR,AREZZO,PUGLIA,LOCALITA' PUGLIA,11.882258,43.501663
051002,AR,AREZZO,AREZZO,LOCALITA' PULICIANO,11.857531,43.387973
051002,AR,AREZZO,,LOCALITA' QUARANTOLA,11.936137,43.474653
051002,AR,AREZZO,,LOCALITÀ QUARANTOLA,11.829048,43.501269
051002,AR,AREZZO,,LOCALITA' QUERCETO,11.926627,43.409522
051002,AR,AREZZO,,LOCALITÀ RANCO,11.795013,43.449343
051002,AR,AREZZO,AREZZO,LOCALITA' RIGUTINO,11.860516,43.372616
051002,AR,AREZZO,,LOCALITA' RIGUTINO,11.873052,43.386058
051002,AR,AREZZO,AREZZO,LOCALITA' RIGUTINO EST,11.869918,43.375748
051002,AR,AREZZO,,LOCALITA' RIGUTINO EST,11.876335,43.380763
051002,AR,AREZZO,AREZZO,LOCALITA' RIGUTINO NOCETELLA,11.872871,43.371373
051002,AR,AREZZO,,LOCALITÀ RIGUTINO NORD,11.865225,43.378027
051002,AR,AREZZO,AREZZO,LOCALITA' RIGUTINO OVEST,11.865897,43.374780
051002,AR,AREZZO,,LOCALITA' RIGUTINO OVEST,11.858880,43.373997
051002,AR,AREZZO,AREZZO,LOCALITA' RIGUTINO SUD,11.870373,43.372527
051002,AR,AREZZO,,LOCALITÀ RIPA OLMO,11.838147,43.429284
051002,AR,AREZZO,RONDINE,LOCALITA' RONDINE,11.763951,43.507512
051002,AR,AREZZO,,LOCALITA' RONDINE,11.767363,43.511240
051002,AR,AREZZO,BATTIFOLLE-RUSCELLO-POGGIOLA,LOCALITA' RUSCELLO,11.790834,43.452778
051002,AR,AREZZO,,LOCALITA' RUSCELLO,11.770420,43.461320
051002,AR,AREZZO,,LOCALITÀ S. FIRENZE,11.921020,43.436986
051002,AR,AREZZO,,LOCALITA' SACCIONE,11.899196,43.421138
051002,AR,AREZZO,,LOCALITÀ SACCIONE,11.889271,43.431174
051002,AR,AREZZO,SALCETA-FORMICHETO-OSTERIA,LOCALITA' SALCETA,11.990933,43.403387
051002,AR,AREZZO,,LOCALITÀ SALCETA DI SANT'AGATA,12.004513,43.401017
051002,AR,AREZZO,,LOCALITÀ SAN BIAGIO ALLA RASSINATA,12.042703,43.383202
051002,AR,AREZZO,,LOCALITA' SAN CASSIANO,11.977209,43.387714
051002,AR,AREZZO,,LOCALITÀ SAN CASSIANO,11.975900,43.398784
051002,AR,AREZZO,BOTTEGA,LOCALITA' SAN DONNINO,11.985228,43.408888
051002,AR,AREZZO,CAMPI,LOCALITA' SAN DONNINO,11.981746,43.413823
051002,AR,AREZZO,,LOCALITA' SAN DONNINO,11.976244,43.431191
051002,AR,AREZZO,,LOCALITÀ SAN DONNINO,11.984429,43.420760
051002,AR,AREZZO,LA FILANDRA,LOCALITA' SAN FILIPPO,11.895408,43.481626
051002,AR,AREZZO,GORGONE - MARMORINO,LOCALITA' SAN FIRENZE,11.914426,43.442098
051002,AR,AREZZO,STOPPEDARCA,LOCALITA' SAN FIRENZE,11.915871,43.437744
051002,AR,AREZZO,,LOCALITA' SAN FIRENZE,11.928255,43.439342
051002,AR,AREZZO,,LOCALITÀ SAN FIRENZE,11.921020,43.436986
051002,AR,AREZZO,BATTIFOLLE-RUSCELLO-POGGIOLA,LOCALITA' SAN GIULIANO,11.800744,43.451126
051002,AR,AREZZO,,LOCALITA' SAN GIULIANO,11.801552,43.450183
051002,AR,AREZZO,AREZZO,LOCALITA' SAN MARCO,11.863948,43.436942
051002,AR,AREZZO,,LOCALITA' SAN POLO,11.913293,43.489549
051002,AR,AREZZO,,LOCALITA' SAN SEVERO,11.957434,43.464335
051002,AR,AREZZO,,LOCALITÀ SAN VERIANO,12.026471,43.465205
051002,AR,AREZZO,I PONTI,LOCALITA' SAN ZENO,11.816317,43.418722
051002,AR,AREZZO,,LOCALITÀ SAN ZENO STRADA A,11.831519,43.430001
051002,AR,AREZZO,,LOCALITÀ SANTA FLORA TORRITA,11.847370,43.434855
051002,AR,AREZZO,SANTA MARIA ALLA RASSINATA,LOCALITA' SANTA MARIA ALLA RASSINATA,12.058839,43.385099
051002,AR,AREZZO,,LOCALITÀ SANTA MARIA ALLA RASSINATA,12.048104,43.385560
051002,AR,AREZZO,COLLUNGO,LOCALITA' SANT'AGATA,12.004694,43.406875
051002,AR,AREZZO,,LOCALITÀ SANT'AGATA,12.004062,43.402097
051002,AR,AREZZO,AREZZO,LOCALITA' SANT'ANDREA A PIGLI,11.848898,43.405755
051002,AR,AREZZO,TERRAROSSA,LOCALITA' SANT'ANDREA A PIGLI,11.841308,43.403855
051002,AR,AREZZO,,LOCALITÀ SANT'ANDREA A PIGLI,11.855564,43.402949
051002,AR,AREZZO,,LOCALITA' SARGIANO,11.861634,43.425595
051002,AR,AREZZO,,LOCALITÀ SARGIANO,11.854034,43.440131
051002,AR,AREZZO,AREZZO,LOCALITA' SASSAIA DI RIGUTINO,11.877830,43.379491
051002,AR,AREZZO,,LOCALITA' SASSAIA DI RIGUTINO,11.878123,43.387815
051002,AR,AREZZO,,LOCALITÀ SCOPETO,11.902736,43.425251
051002,AR,AREZZO,SAN FIRENZE-FONTE DI SALA,LOCALITA' SCOPETONE,11.922957,43.440201
051002,AR,AREZZO,,LOCALITÀ SITORNI,11.865597,43.509325
051002,AR,AREZZO,GORGONE - MARMORINO,LOCALITA' STOPPE D' ARCA,11.914426,43.442098
051002,AR,AREZZO,,LOCALITA' STOPPE D' ARCA,11.911325,43.438319
051002,AR,AREZZO,,LOCALITÀ STOPPEDARCA,11.912079,43.437559
051002,AR,AREZZO,,LOCALITA' STROPPIELLO,11.866761,43.509141
051002,AR,AREZZO,PRATANTICO-INDICATORE,LOCALITA' TALZANO,11.800878,43.477936
051002,AR,AREZZO,,LOCALITA' TALZANO,11.790395,43.475826
051002,AR,AREZZO,,LOCALITÀ TALZANO,11.792688,43.474573
051002,AR,AREZZO,,LOCALITÀ TORRINO,11.934954,43.417181
051002,AR,AREZZO,,LOCALITA' TREGOZZANO,11.899101,43.518834
051002,AR,AREZZO,,LOCALITA' USCIANO,11.944482,43.401201
051002,AR,AREZZO,,LOCALITA' VENERE,11.823977,43.508421
051002,AR,AREZZO,,LOCALITA' VI DE FRATI,11.871090,43.437937
051002,AR,AREZZO,,LOCALITA' VIGNALE,11.842259,43.444083
051002,AR,AREZZO,AREZZO,LOCALITA' VILLAGGIO ETRURIA,11.876460,43.475155
051002,AR,AREZZO,AREZZO,LOCALITA' VILLAGGIO GATTOLINO,11.873226,43.453082
051002,AR,AREZZO,AREZZO,LOCALITA' VILLAGGIO ORIENTE,11.888642,43.470052
051002,AR,AREZZO,AREZZO,LOCALITA' VITIANO,11.884858,43.364890
051002,AR,AREZZO,,LOCALITÀ VITIANO,11.878470,43.360075
051002,AR,AREZZO,AREZZO,MADONNA DI MEZZASTRADA,11.847087,43.422103
051002,AR,AREZZO,MELICIANO,MELICIANO,11.788007,43.523133
051002,AR,AREZZO,,MELICIANO,11.788062,43.521060
051002,AR,AREZZO,AREZZO,MONASTERO,11.883825,43.430815
051002,AR,AREZZO,,MONASTERO,11.883375,43.432931
051002,AR,AREZZO,AREZZO,MONTAGNORO,11.872617,43.438194
051002,AR,AREZZO,,MONTAGNORO,11.874870,43.439893
051002,AR,AREZZO,AREZZO,MONTEFORTINO,11.852114,43.425458
051002,AR,AREZZO,MONTE SOPRA RONDINE,MONTESOPRA RONDINE,11.791326,43.500443
051002,AR,AREZZO,AREZZO,MONTIONE,11.848828,43.480339
051002,AR,AREZZO,AREZZO,MONTOCELLO,11.896668,43.434655
051002,AR,AREZZO,AREZZO,MORTONCELLI,11.895299,43.437763
051002,AR,AREZZO,,MORTONCELLI,11.899163,43.436298
051002,AR,AREZZO,AREZZO,NESPOLI,11.846906,43.441198
051002,AR,AREZZO,AREZZO,OLMO,11.847061,43.428577
051002,AR,AREZZO,,P. BEL TEMPO,11.884159,43.507634
051002,AR,AREZZO,,P. BOSCHERINO,11.821833,43.426870
051002,AR,AREZZO,,PALAIOLO,11.906039,43.439113
051002,AR,AREZZO,PATRIGNONE,PATRIGNONE,11.852491,43.499471
051002,AR,AREZZO,,PATRIGNONE,11.856542,43.500630
051002,AR,AREZZO,,PELLICCIAIA,11.795484,43.461152
051002,AR,AREZZO,AREZZO,PIAGGIA DEL MURELLO,11.879805,43.467457
051002,AR,AREZZO,AREZZO,PIAGGIA SAN BARTOLOMEO,11.884386,43.463702
051002,AR,AREZZO,AREZZO,PIAGGIA SAN LORENZO,11.885609,43.463701
051002,AR,AREZZO,AREZZO,PIAGGIA SAN MARTINO,11.885187,43.464782
051002,AR,AREZZO,AREZZO,PIAZZA ANDROMEDA,11.852064,43.464750
051002,AR,AREZZO,AREZZO,PIAZZA BADIA,11.878750,43.465468
051002,AR,AREZZO,AREZZO,PIAZZA DEI BACCI,11.880273,43.466548
051002,AR,AREZZO,AREZZO,PIAZZA DEL COMMISSARIO,11.883397,43.465538
051002,AR,AREZZO,,PIAZZA DEL POPOLO,11.879384,43.464623
051002,AR,AREZZO,AREZZO,PIAZZA DELLA LIBERTA',11.882414,43.466667
051002,AR,AREZZO,AREZZO,PIAZZA DELLA REPUBBLICA,11.875991,43.461459
051002,AR,AREZZO,AREZZO,PIAZZA DI MURELLO,11.881001,43.466893
051002,AR,AREZZO,AREZZO,PIAZZA DI SAIONE,11.873666,43.457003
051002,AR,AREZZO,AREZZO,PIAZZA DUOMO,11.882591,43.467145
051002,AR,AREZZO,,PIAZZA GIOTTO,11.887684,43.457869
051002,AR,AREZZO,AREZZO,PIAZZA GRANDE,11.884352,43.464650
051002,AR,AREZZO,AREZZO,PIAZZA GUIDO MONACO,11.878427,43.463248
051002,AR,AREZZO,AREZZO,PIAZZA LANDO LANDUCCI,11.881511,43.467329
051002,AR,AREZZO,AREZZO,PIAZZA MARCHIONNE,11.907208,43.458973
051002,AR,AREZZO,AREZZO,PIAZZA POGGIO DEL SOLE,11.875404,43.462993
051002,AR,AREZZO,AREZZO,PIAZZA PORTA CRUCIFERA,11.886851,43.463227
051002,AR,AREZZO,AREZZO,PIAZZA RISORGIMENTO,11.877925,43.461780
051002,AR,AREZZO,AREZZO,PIAZZA SAN DOMENICO,11.881595,43.468551
051002,AR,AREZZO,AREZZO,PIAZZA SAN DONATO,11.866416,43.458679
051002,AR,AREZZO,AREZZO,PIAZZA SAN FRANCESCO,11.880757,43.464862
051002,AR,AREZZO,,PIAZZA SAN GEMIGNANO,11.884371,43.462511
051002,AR,AREZZO,AREZZO,PIAZZA SAN GIUSTO,11.886105,43.461771
051002,AR,AREZZO,AREZZO,PIAZZA SAN JACOPO,11.878520,43.461516
051002,AR,AREZZO,AREZZO,PIAZZA SAN MICHELE,11.881541,43.463431
051002,AR,AREZZO,AREZZO,PIAZZA SANTA MARIA IN GRADI,11.879389,43.467741
051002,AR,AREZZO,AREZZO,PIAZZA SANTA MARIA MADDALENA,11.879229,43.468083
051002,AR,AREZZO,AREZZO,PIAZZA SANT'AGOSTINO,11.881713,43.462698
051002,AR,AREZZO,AREZZO,PIAZZA SANT'ANDREA,11.886729,43.462474
051002,AR,AREZZO,,PIAZZA ZUCCHI,11.873317,43.455922
051002,AR,AREZZO,,PIAZZALE DEL CAMPANILE,11.884067,43.466829
051002,AR,AREZZO,AREZZO,PIAZZALE DELL' AUTOSTAZIONE,11.879095,43.465303
051002,AR,AREZZO,,PIAZZETTA DEL PRATICINO,11.885018,43.464797
051002,AR,AREZZO,AREZZO,PIAZZETTA DELLA FIORAIA,11.880364,43.466322
051002,AR,AREZZO,,PIAZZETTA DI PORTA SANT'ANDREA,11.886591,43.461680
051002,AR,AREZZO,,PIAZZETTA DI PORTA SANTO SPIRITO,11.877868,43.460767
051002,AR,AREZZO,AREZZO,PIAZZETTA DIETRO IL DUOMO,11.883664,43.467179
051002,AR,AREZZO,,PIAZZETTA FAENZI,11.879971,43.470591
051002,AR,AREZZO,AREZZO,PIAZZETTA SAN NICCOLO',11.884750,43.463438
051002,AR,AREZZO,,PIAZZETTA SANT'ADRIANO,11.879197,43.462470
051002,AR,AREZZO,,PIAZZETTA SANT'AGNESE,11.885957,43.463919
051002,AR,AREZZO,AREZZO,PIAZZETTA SANTISSIMA ANNUNZIATA,11.878474,43.467088
051002,AR,AREZZO,,PIAZZETTA SOPRA PONTI,11.879667,43.462686
051002,AR,AREZZO,AREZZO,PIEVE A QUARTO,11.853229,43.419237
051002,AR,AREZZO,,PODERE CASTIGLI,11.824075,43.493797
051002,AR,AREZZO,AREZZO,POGGIOLA,11.826421,43.450276
051002,AR,AREZZO,BATTIFOLLE-RUSCELLO-POGGIOLA,POGGIOLA,11.803667,43.458816
051002,AR,AREZZO,LA COSTA,POGGIOLA,11.798889,43.460051
051002,AR,AREZZO,,POGGIOLA,11.801423,43.459765
051002,AR,AREZZO,PONTE BURIANO-CINCELLI,PONTE A BURIANO,11.797711,43.507265
051002,AR,AREZZO,,PONTE DI BIDO,11.838944,43.493309
051002,AR,AREZZO,PUGLIA,PRESINE,11.881878,43.500019
051002,AR,AREZZO,PUGLIA,PUGLIA,11.883921,43.498534
051002,AR,AREZZO,,PUGLIA,11.884122,43.498450
051002,AR,AREZZO,QUARATA,QUARATA,11.823983,43.500401
051002,AR,AREZZO,,QUARATA,11.815226,43.499913
051002,AR,AREZZO,,RACCORDO AREZZO-BATTIFOLLE,11.811063,43.455772
051002,AR,AREZZO,,RACCORDO AUTOSTRADALE,11.778839,43.437877
051002,AR,AREZZO,AREZZO,RIO DI DESTRA,11.832140,43.434234
051002,AR,AREZZO,AREZZO,RIO DI SINISTRA,11.829537,43.435443
051002,AR,AREZZO,QUARATA,RIPA DI QUARATA,11.830884,43.497101
051002,AR,AREZZO,RONDINE,RONDINE,11.763966,43.507479
051002,AR,AREZZO,,RONDINE,11.768348,43.509423
051002,AR,AREZZO,PALAZZO DEL PERO,SAN DONATO A MAIANO,11.977057,43.424714
051002,AR,AREZZO,AREZZO,SAN LORENZO,11.873292,43.495966
051002,AR,AREZZO,AREZZO,SAN MARCO,11.871782,43.433244
051002,AR,AREZZO,,SAN MARCO,11.873411,43.431644
051002,AR,AREZZO,SAN POLO,SAN POLO,11.913027,43.486664
051002,AR,AREZZO,AREZZO,SAN ZENO,11.830712,43.429475
051002,AR,AREZZO,AREZZO,SANTA FIORA,11.852162,43.442141
051002,AR,AREZZO,,SANTA FIORA,11.849291,43.438822
051002,AR,AREZZO,AREZZO,SANTA FIRMINA,11.877261,43.434430
051002,AR,AREZZO,AREZZO,SANTA LUCIA,11.853146,43.435350
051002,AR,AREZZO,,SANTA LUCIA,11.851376,43.432703
051002,AR,AREZZO,AREZZO,SANTO ANSASTASIO,11.853592,43.421453
051002,AR,AREZZO,,SANTO ANSASTASIO,11.854388,43.420795
051002,AR,AREZZO,AREZZO,SELLINA,11.880446,43.440811
051002,AR,AREZZO,,SELLINA,11.882221,43.440314
051002,AR,AREZZO,AREZZO,STRADA A,11.833021,43.429024
051002,AR,AREZZO,AREZZO,STRADA B,11.828951,43.429315
051002,AR,AREZZO,ANTRIA,STRADA COMUNALE ANTRIA SAN POLO,11.911236,43.495714
051002,AR,AREZZO,,STRADA COMUNALE ANTRIA SAN POLO,11.913479,43.491077
051002,AR,AREZZO,ANTRIA,STRADA COMUNALE CA' DI CIO',11.908618,43.497552
051002,AR,AREZZO,AREZZO,STRADA COMUNALE CA' DI CIO',11.894349,43.494058
051002,AR,AREZZO,,STRADA COMUNALE CA' DI CIO',11.898054,43.491757
051002,AR,AREZZO,AREZZO,STRADA COMUNALE CASSIA,11.818326,43.462047
051002,AR,AREZZO,BATTIFOLLE-RUSCELLO-POGGIOLA,STRADA COMUNALE DA SAN ZENO A PONTE LA NAVE,11.802858,43.455608
051002,AR,AREZZO,,STRADA COMUNALE DA SAN ZENO A PONTE LA NAVE,11.803929,43.449018
051002,AR,AREZZO,AREZZO,STRADA COMUNALE DELLA SELLA,11.889456,43.434793
051002,AR,AREZZO,AREZZO,STRADA COMUNALE DI AGAZZI,11.836863,43.447782
051002,AR,AREZZO,,STRADA COMUNALE DI AGAZZI,11.835735,43.448545
051002,AR,AREZZO,CAMPOLUCI,STRADA COMUNALE DI CAMPOLUCI,11.837252,43.510382
051002,AR,AREZZO,,STRADA COMUNALE DI CAMPOLUCI,11.842085,43.503591
051002,AR,AREZZO,PATRIGNONE,STRADA COMUNALE DI CECILIANO DI PATRIGNONE,11.853070,43.498136
051002,AR,AREZZO,PATRIGNONE,STRADA COMUNALE DI CECILIANO PER PATRIGNONE,11.852415,43.498400
051002,AR,AREZZO,BATTIFOLLE-RUSCELLO-POGGIOLA,STRADA COMUNALE DI RUSCELLO,11.790093,43.452819
051002,AR,AREZZO,,STRADA COMUNALE DI SAN ZENO,11.819874,43.440858
051002,AR,AREZZO,VENERE,STRADA COMUNALE DI VENERE,11.825597,43.511048
051002,AR,AREZZO,,STRADA COMUNALE DI VENERE,11.829705,43.507292
051002,AR,AREZZO,AREZZO,STRADA COMUNALE FRASSINETO PER RIGUTINO,11.863291,43.372246
051002,AR,AREZZO,,STRADA COMUNALE MARCENA,11.855693,43.550001
051002,AR,AREZZO,PUGLIA,STRADA COMUNALE PER PUGLIA,11.881990,43.502635
051002,AR,AREZZO,PONTE BURIANO-CINCELLI,STRADA COMUNALE PIANO DEI CINELLI,11.797403,43.508481
051002,AR,AREZZO,,STRADA COMUNALE PIANO DEI CINELLI,11.799306,43.514593
051002,AR,AREZZO,AREZZO,STRADA COMUNALE RISTRADELLA,11.843584,43.426553
051002,AR,AREZZO,TERRAROSSA,STRADA COMUNALE RISTRADELLA,11.841231,43.404503
051002,AR,AREZZO,,STRADA COMUNALE RISTRADELLA,11.843812,43.408206
051002,AR,AREZZO,AREZZO,STRADA D,11.829700,43.428279
051002,AR,AREZZO,AREZZO,STRADA E,11.828082,43.427217
051002,AR,AREZZO,AREZZO,STRADA PROVINCIALE DELLA CATONA (N.44),11.886934,43.491892
051002,AR,AREZZO,CHIASSA-TREGOZZANO,STRADA PROVINCIALE DELLA CATONA (N.44),11.896193,43.530827
051002,AR,AREZZO,PALAZZO DEL PERO,STRADA PROVINCIALE DELLA RASSINATA (N.41),11.977958,43.420645
051002,AR,AREZZO,AREZZO,STRADA PROVINCIALE DELL'INFERNACCIO (N.23),11.846052,43.361587
051002,AR,AREZZO,,STRADA PROVINCIALE DELL'INFERNACCIO (N.23),11.847455,43.363274
051002,AR,AREZZO,PONTE BURIANO-CINCELLI,STRADA PROVINCIALE DELLO SPICCHIO (N.56),11.798115,43.507599
051002,AR,AREZZO,AREZZO,STRADA PROVINCIALE DI PESCAIOLA (N.21),11.817367,43.461929
051002,AR,AREZZO,BATTIFOLLE-RUSCELLO-POGGIOLA,STRADA PROVINCIALE DI PESCAIOLA (N.21),11.792077,43.445787
051002,AR,AREZZO,PRATANTICO-INDICATORE,STRADA PROVINCIALE DI PESCAIOLA (N.21),11.800861,43.480379
051002,AR,AREZZO,,STRADA PROVINCIALE DI PESCAIOLA (N.21),11.802438,43.459942
051002,AR,AREZZO,CAMPOLUCI,STRADA PROVINCIALE LIBBIA (N.43),11.837072,43.506440
051002,AR,AREZZO,CAMPOLUCI,STRADA PROVINCIALE LIBBIA (N.43),11.839224,43.510447
051002,AR,AREZZO,CHIASSA-TREGOZZANO,STRADA PROVINCIALE LIBBIA (N.43),11.896439,43.533832
051002,AR,AREZZO,GIOVI-PONTE ALLA CHIASSA,STRADA PROVINCIALE LIBBIA (N.43),11.869428,43.525265
051002,AR,AREZZO,,STRADA PROVINCIALE LIBBIA (N.43),11.897526,43.533835
051002,AR,AREZZO,,STRADA PROVINCIALE LIBBIA (N.43),11.834278,43.503671
051002,AR,AREZZO,PALAZZO DEL PERO,STRADA PROVINCIALE PALAZZO DEL PERO (N.40),11.974100,43.421067
051002,AR,AREZZO,AREZZO,STRADA PROVINCIALE SETTE PONTI (N.1),11.855121,43.483647
051002,AR,AREZZO,PONTE BURIANO-CINCELLI,STRADA PROVINCIALE SETTE PONTI (N.1),11.796858,43.505866
051002,AR,AREZZO,QUARATA,STRADA PROVINCIALE SETTE PONTI (N.1),11.829938,43.496867
051002,AR,AREZZO,,STRADA PROVINCIALE SETTE PONTI (N.1),11.826522,43.495603
051002,AR,AREZZO,AREZZO,STRADA STATALE DI VAL D'ARNO (N.69),11.849453,43.473282
051002,AR,AREZZO,PRATANTICO-INDICATORE,STRADA STATALE DI VAL D'ARNO (N.69),11.812720,43.480067
051002,AR,AREZZO,,STRADA STATALE DI VALDARNO (N.69),11.780384,43.482577
051002,AR,AREZZO,AREZZO,STRADA STATALE SENESE ARETINA (N.73),11.875233,43.442328
051002,AR,AREZZO,I PONTI,STRADA STATALE SENESE ARETINA (N.73),11.816270,43.418611
051002,AR,AREZZO,PALAZZO DEL PERO,STRADA STATALE SENESE ARETINA (N.73),11.974485,43.421898
051002,AR,AREZZO,,STRADA STATALE SENESE ARETINA (N.73),11.878926,43.431419
051002,AR,AREZZO,AREZZO,STRADA STATALE UMBRO CASENTINESE ROMAGNOLA (N.71),11.860224,43.409102
051002,AR,AREZZO,AREZZO,STRADA STATALE UMBRO CASENTINESE ROMAGNOLA (N.71),11.884031,43.367372
051002,AR,AREZZO,GIOVI-PONTE ALLA CHIASSA,STRADA STATALE UMBRO CASENTINESE ROMAGNOLA (N.71),11.866159,43.526260
051002,AR,AREZZO,,STRADA STATALE UMBRO CASENTINESE ROMAGNOLA (N.71),11.863606,43.409032
051002,AR,AREZZO,AREZZO,STRADA VICINALE DEI GIGLIONI,11.871173,43.371354
051002,AR,AREZZO,,STRADA VICINALE DEI GIGLIONI,11.870291,43.370390
051002,AR,AREZZO,QUARATA,STRADA VICINALE DEL MOLINO,11.818848,43.503034
051002,AR,AREZZO,,STRADA VICINALE DEL MOLINO,11.815817,43.504458
051002,AR,AREZZO,AREZZO,STRADA VICINALE DEL PODERUZZO,11.878731,43.373261
051002,AR,AREZZO,,STRADA VICINALE DEL PODERUZZO,11.882088,43.374130
051002,AR,AREZZO,,STRADA VICINALE DEL POZZO,11.817279,43.473434
051002,AR,AREZZO,AREZZO,STRADA VICINALE DEL RIO,11.866066,43.375835
051002,AR,AREZZO,BATTIFOLLE-RUSCELLO-POGGIOLA,STRADA VICINALE DELLA FONTE,11.805064,43.458812
051002,AR,AREZZO,AREZZO,STRADA VICINALE DELLA PIEVE,11.853503,43.417279
051002,AR,AREZZO,,STRADA VICINALE DELLA PIEVE,11.853995,43.415020
051002,AR,AREZZO,AREZZO,STRADA VICINALE DELLA SELLA,11.828613,43.454808
051002,AR,AREZZO,FUSATONE-MOLIN BIANCO,STRADA VICINALE DELLA SELLA,11.844769,43.451759
051002,AR,AREZZO,,STRADA VICINALE DELLA SELLA,11.830840,43.457675
051002,AR,AREZZO,BATTIFOLLE-RUSCELLO-POGGIOLA,STRADA VICINALE DELLE STRADELLE,11.801978,43.452971
051002,AR,AREZZO,AREZZO,STRADA VICINALE DELLE VALLOZZE,11.869424,43.373532
051002,AR,AREZZO,,STRADA VICINALE DELLE VALLOZZE,11.864242,43.369176
051002,AR,AREZZO,AREZZO,STRADA VICINALE DI FELLO,11.854806,43.406466
051002,AR,AREZZO,AREZZO,STRADA VICINALE DI FIGLINE,11.867469,43.378871
051002,AR,AREZZO,,STRADA VICINALE DI FIGLINE,11.868476,43.380709
051002,AR,AREZZO,AREZZO,STRADA VICINALE DI FONTIANO,11.853005,43.408890
051002,AR,AREZZO,,STRADA VICINALE DI FONTIANO,11.853629,43.412001
051002,AR,AREZZO,BATTIFOLLE-RUSCELLO-POGGIOLA,STRADA VICINALE DI POGGIOLA BASSA,11.803739,43.454658
051002,AR,AREZZO,,STRADA VICINALE DI RIOLO,11.846092,43.417876
051002,AR,AREZZO,AREZZO,STRADA VICINALE DI SAN BIAGIO,11.854512,43.407870
051002,AR,AREZZO,AREZZO,STRADA VICINALE DI SANTA MARIA,11.851332,43.402945
051002,AR,AREZZO,AREZZO,STRADA VICINALE DI VALLE ROMANA,11.853835,43.422660
051002,AR,AREZZO,AREZZO,STRADA VICINALE DI VIOLA,11.874182,43.375947
051002,AR,AREZZO,,STRADA VICINALE FIORENTINA,11.797790,43.452875
051002,AR,AREZZO,,STRADA VICINALE MOLIN BIANCO,11.845191,43.449442
051002,AR,AREZZO,,STRADA VICINALE NUOVA FONTIANO,11.846877,43.405101
051002,AR,AREZZO,QUARATA,STRADA VICINALE QUARATA PALAZZETTO,11.824324,43.501237
051002,AR,AREZZO,AREZZO,STRADA VICINALE RISTRADELLA,11.849035,43.358480
051002,AR,AREZZO,,STRADA VICINALE ROMEA,11.823108,43.472707
051002,AR,AREZZO,AREZZO,STRADA VICINALE SANTA MARIA,11.881717,43.448470
051002,AR,AREZZO,,STRADONE DI CA' DE CIO,11.881104,43.491630
051002,AR,AREZZO,AREZZO,STRADONE DI VILLARADA,11.875311,43.477198
051002,AR,AREZZO,STROPPIELLO,STROPPIELLO,11.864292,43.504438
051002,AR,AREZZO,,STROPPIELLO,11.863896,43.503576
051002,AR,AREZZO,,TEGOIA,11.866402,43.382887
051002,AR,AREZZO,CHIASSA-TREGOZZANO,TERRIO,11.891673,43.532825
051002,AR,AREZZO,AREZZO,TOPPO,11.860698,43.378321
051002,AR,AREZZO,CHIASSA-TREGOZZANO,TREGOZZANO,11.892961,43.519816
051002,AR,AREZZO,VENERE,VENERE,11.827665,43.512811
051002,AR,AREZZO,,VENERE,11.829314,43.512787
051002,AR,AREZZO,,VENTO,11.900127,43.503969
051002,AR,AREZZO,AREZZO,VIA ADDA,11.873221,43.454035
051002,AR,AREZZO,AREZZO,VIA ADIGE,11.876560,43.455243
051002,AR,AREZZO,,VIA ADIGRAT,11.866441,43.452087
051002,AR,AREZZO,AREZZO,VIA ADUA,11.885004,43.461329
051002,AR,AREZZO,AREZZO,VIA ALBERGOTTI,11.882736,43.465832
051002,AR,AREZZO,AREZZO,VIA ALBERT EINSTEIN,11.846932,43.472378
051002,AR,AREZZO,AREZZO,VIA ALCIDE DE GASPERI,11.867205,43.459043
051002,AR,AREZZO,AREZZO,VIA ALESSANDRO DAL BORRO,11.862830,43.464421
051002,AR,AREZZO,AREZZO,VIA ALESSANDRO MALASPINA,11.867822,43.456387
051002,AR,AREZZO,AREZZO,VIA ALESSANDRO MANZONI,11.863533,43.451236
051002,AR,AREZZO,AREZZO,VIA ALESSANDRO VOLTA,11.855374,43.471208
051002,AR,AREZZO,AREZZO,VIA ALESSI,11.906219,43.458960
051002,AR,AREZZO,,VIA ALIOTTI,11.879317,43.467850
051002,AR,AREZZO,AREZZO,VIA ALPE DELLA LUNA,11.870360,43.467221
051002,AR,AREZZO,AREZZO,VIA ALVISE DA MOSTO,11.867607,43.456761
051002,AR,AREZZO,AREZZO,VIA AMEDEO MODIGLIANI,11.891617,43.454542
051002,AR,AREZZO,AREZZO,VIA AMERIGO VESPUCCI,11.867031,43.456915
051002,AR,AREZZO,AREZZO,VIA ANCONETANA,11.908118,43.454399
051002,AR,AREZZO,AREZZO,VIA ANDREA CESALPINO,11.881740,43.465565
051002,AR,AREZZO,AREZZO,VIA ANDREA DELLA ROBBIA,11.879653,43.447595
051002,AR,AREZZO,AREZZO,VIA ANDREA DORIA,11.867471,43.456165
051002,AR,AREZZO,AREZZO,VIA ANDREA MANTEGNA,11.887240,43.454963
051002,AR,AREZZO,AREZZO,VIA ANDREA PISANO,11.887205,43.458429
051002,AR,AREZZO,AREZZO,VIA ANFITEATRO,11.879201,43.461104
051002,AR,AREZZO,AREZZO,VIA ANGELO RECAPITO,11.901196,43.460583
051002,AR,AREZZO,AREZZO,VIA ANGELO TRICCA,11.886282,43.453165
051002,AR,AREZZO,AREZZO,VIA ANGIOLO POLIZIANO,11.871960,43.455238
051002,AR,AREZZO,AREZZO,VIA ANTONIO CECCHI,11.870907,43.453974
051002,AR,AREZZO,AREZZO,VIA ANTONIO CURINA,11.898221,43.461828
051002,AR,AREZZO,AREZZO,VIA ANTONIO CURINA,11.897931,43.460935
051002,AR,AREZZO,AREZZO,VIA ANTONIO DA SAN GALLO,11.889824,43.464161
051002,AR,AREZZO,,VIA ANTONIO FOGAZZARO,11.865652,43.448791
051002,AR,AREZZO,AREZZO,VIA ANTONIO GUADAGNOLI,11.882211,43.460179
051002,AR,AREZZO,AREZZO,VIA ANTONIO MEUCCI,11.863293,43.468643
051002,AR,AREZZO,AREZZO,VIA ANTONIO NARDI,11.876098,43.470452
051002,AR,AREZZO,,VIA ANTONIO PACINOTTI,11.851814,43.468322
051002,AR,AREZZO,AREZZO,VIA ANTONIO PIGAFETTA,11.867482,43.458443
051002,AR,AREZZO,AREZZO,VIA ANTONIO PIZZUTO,11.857196,43.458682
051002,AR,AREZZO,AREZZO,VIA ANTONIO SIGNORINI,11.898877,43.459574
051002,AR,AREZZO,AREZZO,VIA ANTONIO VIVALDI,11.838835,43.476132
051002,AR,AREZZO,AREZZO,VIA ARCHIANO,11.873140,43.455864
051002,AR,AREZZO,,VIA ARDENGO SOFFICI,11.900098,43.457183
051002,AR,AREZZO,AREZZO,VIA ARNALDO PIERACCINI,11.902126,43.460521
051002,AR,AREZZO,AREZZO,VIA ARNO,11.873883,43.455073
051002,AR,AREZZO,AREZZO,VIA ARRIGO TESTA,11.875425,43.464006
051002,AR,AREZZO,AREZZO,VIA ARTHUR FLAMING,11.854026,43.469541
051002,AR,AREZZO,AREZZO,VIA ARTURO BENEDETTI MICHELANGELI,11.844581,43.475833
051002,AR,AREZZO,AREZZO,VIA ASMARA,11.884170,43.461601
051002,AR,AREZZO,AREZZO,VIA ASSAB,11.881799,43.461405
051002,AR,AREZZO,AREZZO,VIA AUGUSTO RIGHI,11.846545,43.470316
051002,AR,AREZZO,AREZZO,VIA AURELIO SAFFI,11.879910,43.465962
051002,AR,AREZZO,AREZZO,VIA AVIGNONE,11.872860,43.457529
051002,AR,AREZZO,,VIA BADEN POWELL,11.862070,43.452057
051002,AR,AREZZO,AREZZO,VIA BALDACCIO D'ANGHIARI,11.872161,43.465293
051002,AR,AREZZO,AREZZO,VIA BALILLA,11.882679,43.468656
051002,AR,AREZZO,AREZZO,VIA BARSANTI EUGENIO,11.848896,43.464297
051002,AR,AREZZO,AREZZO,VIA BARTOLOMEO DELLA GATTA,11.886245,43.459436
051002,AR,AREZZO,AREZZO,VIA BARTOLOMEO DI SER GORELLO,11.888919,43.462165
051002,AR,AREZZO,AREZZO,VIA BEATO ANGELICO,11.890194,43.459114
051002,AR,AREZZO,AREZZO,VIA BECCHERIA,11.880340,43.464171
051002,AR,AREZZO,AREZZO,VIA BENEDETTO CROCE,11.857231,43.463768
051002,AR,AREZZO,AREZZO,VIA BENEDETTO VARCHI,11.874742,43.467550
051002,AR,AREZZO,CHIASSA-TREGOZZANO,VIA BENEDUCI,11.890517,43.517182
051002,AR,AREZZO,AREZZO,VIA BENJAMIN FRANKLIN,11.845543,43.470145
051002,AR,AREZZO,AREZZO,VIA BENVENUTO CELLINI,11.888034,43.458173
051002,AR,AREZZO,,VIA BERNARDINO CATASTINI,11.913660,43.451813
051002,AR,AREZZO,AREZZO,VIA BERNARDO ROSSELLINO,11.874831,43.466644
051002,AR,AREZZO,AREZZO,VIA BERNARDO TANUCCI,11.897297,43.458894
051002,AR,AREZZO,AREZZO,VIA BICCHIERAIA,11.882438,43.465169
051002,AR,AREZZO,AREZZO,VIA BOLOGNA,11.871750,43.470708
051002,AR,AREZZO,AREZZO,VIA BORGUNTO,11.884116,43.463921
051002,AR,AREZZO,AREZZO,VIA BOTTEGO,11.872355,43.455157
051002,AR,AREZZO,AREZZO,VIA BRAVA,11.877796,43.469421
051002,AR,AREZZO,AREZZO,VIA BUONCONTE DA MONTEFELTRO,11.885662,43.474446
051002,AR,AREZZO,CHIASSA-TREGOZZANO,VIA BUONCONTE DA MONTEFELTRO,11.888844,43.514193
051002,AR,AREZZO,,VIA BUONCONTE DA MONTEFELTRO,11.887788,43.506583
051002,AR,AREZZO,AREZZO,VIA BUONOCONTE DA MONTEFELTRO,11.888248,43.489323
051002,AR,AREZZO,AREZZO,VIA CADUTI DEL LAVORO,11.881289,43.456870
051002,AR,AREZZO,,VIA CADUTI DI EL ALAMEIN,11.851051,43.457872
051002,AR,AREZZO,AREZZO,VIA CAMILLO GOLGI,11.856963,43.472954
051002,AR,AREZZO,AREZZO,VIA CAMPALDINO,11.886350,43.472762
051002,AR,AREZZO,,VIA CAMPO DI MARTE,11.874500,43.460207
051002,AR,AREZZO,AREZZO,VIA CAPANNE,11.852536,43.365787
051002,AR,AREZZO,,VIA CARDINAL MASSAIA,11.872593,43.453679
051002,AR,AREZZO,AREZZO,VIA CARLO ALBERTO DALLA CHIESA,11.868092,43.467313
051002,AR,AREZZO,,VIA CARLO DONAT CATTIN,11.839497,43.460912
051002,AR,AREZZO,AREZZO,VIA CARLO FORLANINI,11.862762,43.469648
051002,AR,AREZZO,,VIA CARLO LINNEO,11.853995,43.473194
051002,AR,AREZZO,AREZZO,VIA CARLO MARSUPINI,11.895406,43.462701
051002,AR,AREZZO,AREZZO,VIA CARLO MATTEUCCI,11.844488,43.469059
051002,AR,AREZZO,AREZZO,VIA CARLO PISACANE,11.858753,43.461847
051002,AR,AREZZO,,VIA CASENTINESE,11.875718,43.488365
051002,AR,AREZZO,AREZZO,VIA CATENAIA,11.869227,43.469261
051002,AR,AREZZO,AREZZO,VIA CAVOUR,11.879758,43.465857
051002,AR,AREZZO,AREZZO,VIA CENNE DELLA CHITARRA,11.875611,43.463500
051002,AR,AREZZO,PALAZZO DEL PERO,VIA CERFONE,11.973342,43.421466
051002,AR,AREZZO,AREZZO,VIA CERTOMONDO,11.886013,43.470670
051002,AR,AREZZO,AREZZO,VIA CESARE BATTISTI,11.866922,43.458647
051002,AR,AREZZO,AREZZO,VIA CHARLES DARWIN,11.854541,43.473985
051002,AR,AREZZO,AREZZO,VIA CHEREN,11.870051,43.456033
051002,AR,AREZZO,AREZZO,VIA CHIARI,11.825114,43.458545
051002,AR,AREZZO,AREZZO,VIA CHIASSAIA,11.879890,43.468288
051002,AR,AREZZO,BATTIFOLLE-RUSCELLO-POGGIOLA,VIA CINGUETTA,11.787265,43.443520
051002,AR,AREZZO,AREZZO,VIA CLAUDIO MONTEVERDI,11.838039,43.476955
051002,AR,AREZZO,,VIA CLAUDIO MONTEVERDI,11.838619,43.477488
051002,AR,AREZZO,AREZZO,VIA CLAUDIO TOLOMEO,11.868023,43.454254
051002,AR,AREZZO,AREZZO,VIA COLCITRONE,11.886115,43.463167
051002,AR,AREZZO,AREZZO,VIA COLONNELLO BETTINI,11.890826,43.460532
051002,AR,AREZZO,,VIA CONCINO CONCINI,11.857915,43.462660
051002,AR,AREZZO,,VIA CORRADO CAGLI,11.896413,43.457608
051002,AR,AREZZO,AREZZO,VIA CORRADO LAZZERI,11.895887,43.462229
051002,AR,AREZZO,AREZZO,VIA CRISTOFORO COLOMBO,11.869595,43.456516
051002,AR,AREZZO,AREZZO,VIA CURTATONE,11.871100,43.457570
051002,AR,AREZZO,AREZZO,VIA DE' MONTETINI,11.881586,43.466515
051002,AR,AREZZO,AREZZO,VIA DE' PECORI,11.880339,43.465735
051002,AR,AREZZO,AREZZO,VIA DE' REDI,11.880996,43.463914
051002,AR,AREZZO,AREZZO,VIA DEGLI ACCOLTI,11.882318,43.454990
051002,AR,AREZZO,AREZZO,VIA DEGLI OPPI,11.896100,43.358880
051002,AR,AREZZO,AREZZO,VIA DEI CAPPUCCINI,11.900101,43.466765
051002,AR,AREZZO,,VIA DEI CAPPUCCINI,11.902069,43.467692
051002,AR,AREZZO,AREZZO,VIA DEI CENCI,11.880177,43.463268
051002,AR,AREZZO,AREZZO,VIA DEI FRATI,11.864439,43.439189
051002,AR,AREZZO,,VIA DEI FRATI,11.864588,43.443843
051002,AR,AREZZO,AREZZO,VIA DEI PALAGI,11.885307,43.465121
051002,AR,AREZZO,PALAZZETTI,VIA DEI PALAZZETTI,11.844789,43.482617
051002,AR,AREZZO,AREZZO,VIA DEI PIANETI,11.855631,43.464331
051002,AR,AREZZO,AREZZO,VIA DEI PILEATI,11.883755,43.465709
051002,AR,AREZZO,AREZZO,VIA DEL BASTIONE,11.880940,43.470316
051002,AR,AREZZO,AREZZO,VIA DEL CASOLINO,11.839436,43.478376
051002,AR,AREZZO,AREZZO,VIA DEL CASTRO,11.866837,43.470838
051002,AR,AREZZO,AREZZO,VIA DEL FOSSO,11.859549,43.480741
051002,AR,AREZZO,AREZZO,VIA DEL GAVARDELLO,11.862289,43.478827
051002,AR,AREZZO,,VIA DEL MASPINO,11.861595,43.480168
051002,AR,AREZZO,AREZZO,VIA DEL MULINACCIO,11.862572,43.478932
051002,AR,AREZZO,,VIA DEL MULINACCIO,11.860144,43.475766
051002,AR,AREZZO,AREZZO,VIA DEL NINFEO,11.883254,43.460746
051002,AR,AREZZO,AREZZO,VIA DEL PANTANINO,11.892343,43.460303
051002,AR,AREZZO,AREZZO,VIA DEL PANTANO,11.895934,43.458938
051002,AR,AREZZO,AREZZO,VIA DEL SARACINO,11.879746,43.466387
051002,AR,AREZZO,AREZZO,VIA DEL TRAMARINO,11.863203,43.478510
051002,AR,AREZZO,AREZZO,VIA DEL TRIONFO,11.870121,43.456703
051002,AR,AREZZO,,VIA DEL VINGONE,11.864897,43.455459
051002,AR,AREZZO,AREZZO,VIA DEL VITA,11.909006,43.458395
051002,AR,AREZZO,AREZZO,VIA DELLA ACROPOLI,11.898611,43.456076
051002,AR,AREZZO,AREZZO,VIA DELLA CELLA,11.887607,43.475542
051002,AR,AREZZO,LA FILANDRA,VIA DELLA CELLA,11.895408,43.481626
051002,AR,AREZZO,,VIA DELLA CELLA,11.896516,43.484947
051002,AR,AREZZO,AREZZO,VIA DELLA CHIMERA,11.874617,43.471601
051002,AR,AREZZO,AREZZO,VIA DELLA FIORAIA,11.881176,43.465817
051002,AR,AREZZO,AREZZO,VIA DELLA FIORANDOLA,11.848714,43.461348
051002,AR,AREZZO,AREZZO,VIA DELLA FONTANELLA,11.885666,43.462519
051002,AR,AREZZO,AREZZO,VIA DELLA FORNACINA,11.914243,43.457239
051002,AR,AREZZO,AREZZO,VIA DELLA GHIRLANDA,11.917527,43.461038
051002,AR,AREZZO,,VIA DELLA GHIRLANDA,11.917445,43.461799
051002,AR,AREZZO,AREZZO,VIA DELLA MADONNA,11.883146,43.462768
051002,AR,AREZZO,AREZZO,VIA DELLA MAGNANINA,11.876733,43.446966
051002,AR,AREZZO,AREZZO,VIA DELLA MINERVA,11.884172,43.462700
051002,AR,AREZZO,AREZZO,VIA DELLA REGGHIA,11.914157,43.453973
051002,AR,AREZZO,AREZZO,VIA DELLA ROBBIA,11.879726,43.444439
051002,AR,AREZZO,AREZZO,VIA DELLA SOCIETA' OPERAIA,11.878790,43.460869
051002,AR,AREZZO,AREZZO,VIA DELL'ACROPOLI,11.887894,43.460137
051002,AR,AREZZO,AREZZO,VIA DELL'AGONIA,11.882455,43.463691
051002,AR,AREZZO,AREZZO,VIA DELLE BIOLE,11.851263,43.476163
051002,AR,AREZZO,,VIA DELLE CAPANNELLE,11.759210,43.520429
051002,AR,AREZZO,AREZZO,VIA DELLE CONSERVE,11.907739,43.462156
051002,AR,AREZZO,,VIA DELLE CONSERVE,11.913349,43.465596
051002,AR,AREZZO,AREZZO,VIA DELLE FONTI,11.908919,43.454601
051002,AR,AREZZO,AREZZO,VIA DELLE FOSSE,11.879318,43.469047
051002,AR,AREZZO,AREZZO,VIA DELLE GALLIARDE,11.885706,43.461271
051002,AR,AREZZO,AREZZO,VIA DELLE MURA,11.886568,43.462374
051002,AR,AREZZO,AREZZO,VIA DELLE PANIERE,11.880007,43.469324
051002,AR,AREZZO,AREZZO,VIA DELLE ROSE,11.875266,43.464524
051002,AR,AREZZO,AREZZO,VIA DELLE VIGNACCE,11.916004,43.455728
051002,AR,AREZZO,,VIA DELLO SCOPETONE,11.922733,43.446739
051002,AR,AREZZO,AREZZO,VIA DELL'ORCIOLAIA,11.863602,43.469873
051002,AR,AREZZO,AREZZO,VIA DELL'ORTO,11.883112,43.466243
051002,AR,AREZZO,AREZZO,VIA DI CA' CI0',11.882887,43.492056
051002,AR,AREZZO,AREZZO,VIA DI CASTELSECCO,11.897047,43.450565
051002,AR,AREZZO,,VIA DI COGNAIA,11.918586,43.464220
051002,AR,AREZZO,,VIA DI MONTIONE,11.850414,43.484857
051002,AR,AREZZO,,VIA DI PENETO,11.951779,43.449885
051002,AR,AREZZO,AREZZO,VIA DI PESCAIA,11.883464,43.464212
051002,AR,AREZZO,,VIA DI POGGIO DELLA FONTE,11.924785,43.465113
051002,AR,AREZZO,AREZZO,VIA DI SAN FABIANO,11.898160,43.472597
051002,AR,AREZZO,,VIA DI SAN FABIANO,11.901219,43.473591
051002,AR,AREZZO,AREZZO,VIA DI SAN FILIPPO,11.893999,43.472903
051002,AR,AREZZO,AREZZO,VIA DIAZ,11.867792,43.458403
051002,AR,AREZZO,AREZZO,VIA DIETRO LE CAMPANE,11.885233,43.462296
051002,AR,AREZZO,AREZZO,VIA DIVISIONE GARIBALDI,11.892411,43.455530
051002,AR,AREZZO,AREZZO,VIA DOMENICO CAMPANACCI,11.897207,43.460901
051002,AR,AREZZO,AREZZO,VIA DOMENICO CIMAROSA,11.843166,43.476419
051002,AR,AREZZO,AREZZO,VIA DOMENICO GHIRLANDAIO,11.887320,43.455269
051002,AR,AREZZO,AREZZO,VIA DON LUIGI STURZO,11.846565,43.464742
051002,AR,AREZZO,AREZZO,VIA DON ORIONE,11.853766,43.464388
051002,AR,AREZZO,,VIA DUCCIO DI BUONINSEGNA,11.879133,43.454239
051002,AR,AREZZO,AREZZO,VIA DUOMO VECCHIO,11.873497,43.461199
051002,AR,AREZZO,,VIA EMANUELE PETRI,11.854530,43.459350
051002,AR,AREZZO,,VIA EMILIA,11.876037,43.472158
051002,AR,AREZZO,AREZZO,VIA EMILIO VEZZOSI,11.875711,43.456507
051002,AR,AREZZO,AREZZO,VIA ENRICO FERMI,11.862739,43.470127
051002,AR,AREZZO,AREZZO,VIA ENRICO GRAZI,11.896832,43.462197
051002,AR,AREZZO,AREZZO,VIA ERBOSA,11.886676,43.456016
051002,AR,AREZZO,AREZZO,VIA ERITREA,11.876561,43.462630
051002,AR,AREZZO,AREZZO,VIA ERNESTO ROSSI,11.836355,43.460669
051002,AR,AREZZO,AREZZO,VIA EUGENIO CALO',11.899725,43.461360
051002,AR,AREZZO,AREZZO,VIA EUGENIO MONTALE,11.858115,43.451940
051002,AR,AREZZO,AREZZO,VIA EUGENIO SCHIAPARELLI,11.869288,43.455328
051002,AR,AREZZO,AREZZO,VIA EVANGELISTA TORRICELLI,11.863098,43.469230
051002,AR,AREZZO,AREZZO,VIA FABIO FILZI,11.873951,43.458600
051002,AR,AREZZO,AREZZO,VIA FALCIAI,11.912470,43.459660
051002,AR,AREZZO,AREZZO,VIA FERDINANDO MAGELLANO,11.865346,43.457819
051002,AR,AREZZO,AREZZO,VIA FILIPPO LIPPI,11.873100,43.464156
051002,AR,AREZZO,AREZZO,VIA FIORENTINA,11.861090,43.471235
051002,AR,AREZZO,AREZZO,VIA FIRENZE,11.869154,43.470389
051002,AR,AREZZO,AREZZO,VIA FONTE VENEZIANA,11.890963,43.463821
051002,AR,AREZZO,AREZZO,VIA FONTEBRANDA,11.889708,43.481605
051002,AR,AREZZO,LA FILANDRA,VIA FONTEBRANDA,11.894902,43.481784
051002,AR,AREZZO,,VIA FONTEBRANDA,11.907189,43.484438
051002,AR,AREZZO,,VIA FRA' GIROLAMO SAVONAROLA,11.862992,43.464571
051002,AR,AREZZO,AREZZO,VIA FRA' GUITTONE,11.874955,43.464013
051002,AR,AREZZO,AREZZO,VIA FRA LE TORRI,11.884737,43.462878
051002,AR,AREZZO,AREZZO,VIA FRANCESCO BARACCA,11.845377,43.461251
051002,AR,AREZZO,AREZZO,VIA FRANCESCO CORADINI,11.893761,43.465622
051002,AR,AREZZO,AREZZO,VIA FRANCESCO CRISPI,11.881892,43.460817
051002,AR,AREZZO,,VIA FRANCESCO FERRUCCI,11.861047,43.462266
051002,AR,AREZZO,AREZZO,VIA FRANCESCO FOLLI,11.891957,43.461142
051002,AR,AREZZO,AREZZO,VIA FRANCESCO GAMURRINI,11.891149,43.465982
051002,AR,AREZZO,AREZZO,VIA FRANCESCO LAPARELLI PITTI,11.854610,43.465128
051002,AR,AREZZO,AREZZO,VIA FRANCESCO MOCHI,11.875187,43.474058
051002,AR,AREZZO,AREZZO,VIA FRANCESCO PETRARCA,11.876459,43.464220
051002,AR,AREZZO,AREZZO,VIA FRANCESCO REDI,11.901179,43.461684
051002,AR,AREZZO,AREZZO,VIA FRANCESCO RISMONDO,11.872971,43.457871
051002,AR,AREZZO,AREZZO,VIA FRANCESCO SEVERI,11.912316,43.456536
051002,AR,AREZZO,,VIA FRATELLI LUMIÈRE,11.847281,43.471532
051002,AR,AREZZO,AREZZO,VIA FUNGHINI,11.907006,43.458029
051002,AR,AREZZO,AREZZO,VIA GAETANO DONIZETTI,11.840459,43.476151
051002,AR,AREZZO,,VIA GALILEO FERRARIS,11.856039,43.468088
051002,AR,AREZZO,AREZZO,VIA GALILEO GALILEI,11.857799,43.471306
051002,AR,AREZZO,AREZZO,VIA GALLIANO,11.872371,43.455576
051002,AR,AREZZO,AREZZO,VIA GENERALE ARIMONDI,11.868085,43.453549
051002,AR,AREZZO,AREZZO,VIA GENERALE DA BORMIDA,11.873443,43.452221
051002,AR,AREZZO,AREZZO,VIA GENOVA,11.870702,43.470908
051002,AR,AREZZO,AREZZO,VIA GHIBELLINA,11.878286,43.469456
051002,AR,AREZZO,AREZZO,VIA GIACOMO LEOPARDI,11.866684,43.449685
051002,AR,AREZZO,AREZZO,VIA GIACOMO PUCCINI,11.843052,43.472789
051002,AR,AREZZO,AREZZO,VIA GIAMBATTISTA VICO,11.849785,43.467213
051002,AR,AREZZO,AREZZO,VIA GIAMBOLOGNA,11.890066,43.458255
051002,AR,AREZZO,AREZZO,VIA GINO CAPPONI,11.862645,43.450178
051002,AR,AREZZO,AREZZO,VIA GINO SEVERINI,11.891964,43.453691
051002,AR,AREZZO,AREZZO,VIA GIOACCHINO ROSSINI,11.841497,43.477564
051002,AR,AREZZO,AREZZO,VIA GIORDANO BRUNO,11.852671,43.462671
051002,AR,AREZZO,AREZZO,VIA GIORGIO VASARI,11.884012,43.465263
051002,AR,AREZZO,AREZZO,VIA GIOSUE' CARDUCCI,11.880867,43.465507
051002,AR,AREZZO,AREZZO,VIA GIOVANBATTISTA MORGAGNI,11.854953,43.470347
051002,AR,AREZZO,AREZZO,VIA GIOVANNI ACUTO,11.863360,43.461126
051002,AR,AREZZO,AREZZO,VIA GIOVANNI BERCHET,11.858413,43.448940
051002,AR,AREZZO,AREZZO,VIA GIOVANNI CABOTO,11.868971,43.457203
051002,AR,AREZZO,AREZZO,VIA GIOVANNI CIMABUE,11.891841,43.456955
051002,AR,AREZZO,AREZZO,VIA GIOVANNI COCCI,11.895434,43.464350
051002,AR,AREZZO,AREZZO,VIA GIOVANNI DA VERRAZZANO,11.866916,43.457462
051002,AR,AREZZO,AREZZO,VIA GIOVANNI FABBRONI,11.872108,43.454775
051002,AR,AREZZO,AREZZO,VIA GIOVANNI FATTORI,11.882190,43.453393
051002,AR,AREZZO,AREZZO,VIA GIOVANNI GABOTO,11.868259,43.456423
051002,AR,AREZZO,AREZZO,VIA GIOVANNI PAPINI,11.857321,43.449257
051002,AR,AREZZO,AREZZO,VIA GIOVANNI PASCOLI,11.863909,43.448261
051002,AR,AREZZO,AREZZO,VIA GIOVANNI SEVERI,11.917130,43.452941
051002,AR,AREZZO,AREZZO,VIA GIOVANNI VERGA,11.867148,43.450875
051002,AR,AREZZO,AREZZO,VIA GIOVANNI XXIII,11.863522,43.459772
051002,AR,AREZZO,AREZZO,VIA GIULIO PASTORE,11.839538,43.463769
051002,AR,AREZZO,AREZZO,VIA GIULIO SALVADORI,11.864585,43.448505
051002,AR,AREZZO,AREZZO,VIA GIUSEPPE DI VITTORIO,11.863206,43.460063
051002,AR,AREZZO,AREZZO,VIA GIUSEPPE GARIBALDI,11.879742,43.465347
051002,AR,AREZZO,AREZZO,VIA GIUSEPPE GIUSTI,11.865264,43.452078
051002,AR,AREZZO,AREZZO,VIA GIUSEPPE LASCHI,11.865640,43.463515
051002,AR,AREZZO,AREZZO,VIA GIUSEPPE MAZZINI,11.883079,43.463702
051002,AR,AREZZO,AREZZO,VIA GIUSEPPE PARINI,11.855554,43.459656
051002,AR,AREZZO,AREZZO,VIA GIUSEPPE PIETRI,11.882134,43.470757
051002,AR,AREZZO,AREZZO,VIA GIUSEPPE SANARELLI,11.895207,43.465756
051002,AR,AREZZO,AREZZO,VIA GIUSEPPE TONIOLO,11.846678,43.464661
051002,AR,AREZZO,AREZZO,VIA GIUSEPPE UNGARETTI,11.858710,43.455901
051002,AR,AREZZO,,VIA GIUSEPPE VERDI,11.878074,43.461418
051002,AR,AREZZO,AREZZO,VIA GRANDI,11.821736,43.457556
051002,AR,AREZZO,AREZZO,VIA GREGORIO X,11.889631,43.470495
051002,AR,AREZZO,AREZZO,VIA GUELFA,11.873991,43.456224
051002,AR,AREZZO,AREZZO,VIA GUGLIELMINO DEGLI UMBERTINI,11.853765,43.470745
051002,AR,AREZZO,AREZZO,VIA GUGLIELMO CHIARINI,11.860630,43.449639
051002,AR,AREZZO,,VIA GUGLIELMO CHIARINI,11.849920,43.451085
051002,AR,AREZZO,,VIA GUGLIELMO DEGLI UBERTINI,11.853405,43.470454
051002,AR,AREZZO,AREZZO,VIA GUGLIELMO DURANTI,11.900232,43.460492
051002,AR,AREZZO,AREZZO,VIA GUGLIELMO MARCONI,11.876832,43.463341
051002,AR,AREZZO,AREZZO,VIA GUGLIELMO OBERDAN,11.882788,43.463134
051002,AR,AREZZO,,VIA GUIDO GUINICELLI,11.890814,43.464385
051002,AR,AREZZO,AREZZO,VIA GUIDO MONACO,11.878329,43.463258
051002,AR,AREZZO,AREZZO,VIA GUIDO TARLATI,11.883361,43.471094
051002,AR,AREZZO,,VIA IGINO COCCHI,11.838651,43.471772
051002,AR,AREZZO,AREZZO,VIA IPPOLITA DEGLI AZZI,11.890490,43.461569
051002,AR,AREZZO,AREZZO,VIA IPPOLITO ROSSELLINO,11.868462,43.454478
051002,AR,AREZZO,AREZZO,VIA ISAAC NEWTON,11.846838,43.470856
051002,AR,AREZZO,AREZZO,VIA ISIDORO DEL LUNGO,11.878722,43.465788
051002,AR,AREZZO,AREZZO,VIA ISONZO,11.877264,43.458545
051002,AR,AREZZO,AREZZO,VIA IV NOVEMBRE,11.869767,43.453067
051002,AR,AREZZO,AREZZO,VIA JAMES COOK,11.864018,43.457273
051002,AR,AREZZO,,VIA JOHN FITZGERALD KENNEDY,11.866097,43.458273
051002,AR,AREZZO,,VIA LAMA,11.850490,43.546222
051002,AR,AREZZO,AREZZO,VIA LAZIO,11.873682,43.471134
051002,AR,AREZZO,AREZZO,VIA LAZZARO SPALLANZANI,11.857126,43.471282
051002,AR,AREZZO,AREZZO,VIA LEGA,11.890787,43.452719
051002,AR,AREZZO,AREZZO,VIA LEON BATTISTA ALBERTI,11.875027,43.459441
051002,AR,AREZZO,AREZZO,VIA LEONARDO BRUNI,11.894079,43.464109
051002,AR,AREZZO,AREZZO,VIA LEONE LEONI,11.875764,43.467395
051002,AR,AREZZO,,VIA LEONIDA MARTINI,11.849496,43.479371
051002,AR,AREZZO,AREZZO,VIA LIBIA,11.876532,43.455669
051002,AR,AREZZO,AREZZO,VIA LICIO NENCETTI,11.883196,43.461257
051002,AR,AREZZO,AREZZO,VIA LIGURIA,11.874433,43.473794
051002,AR,AREZZO,AREZZO,VIA LORENTINO D'AREZZO,11.877497,43.461969
051002,AR,AREZZO,AREZZO,VIA LORENZO GUAZZESI,11.898598,43.459653
051002,AR,AREZZO,AREZZO,VIA LORENZO PIGNOTTI,11.865792,43.449740
051002,AR,AREZZO,AREZZO,VIA LORENZO VIANI,11.892653,43.453671
051002,AR,AREZZO,AREZZO,VIA LOUIS PASTEUR,11.843022,43.469528
051002,AR,AREZZO,AREZZO,VIA LUCA PACIOLI,11.902122,43.458815
051002,AR,AREZZO,AREZZO,VIA LUIGI CAPUANA,11.865065,43.449044
051002,AR,AREZZO,AREZZO,VIA LUIGI GALVANI,11.847305,43.467424
051002,AR,AREZZO,AREZZO,VIA LUIGI NONO,11.844832,43.477126
051002,AR,AREZZO,AREZZO,VIA LUNA,11.860022,43.465499
051002,AR,AREZZO,AREZZO,VIA MACALLE',11.884625,43.460956
051002,AR,AREZZO,AREZZO,VIA MADAME MARIE CURIE,11.844730,43.470098
051002,AR,AREZZO,AREZZO,VIA MADONNA DEL PRATO,11.879034,43.462899
051002,AR,AREZZO,AREZZO,VIA MADONNA LAURA,11.881940,43.468192
051002,AR,AREZZO,AREZZO,VIA MAESTRI DEL LAVORO,11.860852,43.456518
051002,AR,AREZZO,,VIA MAGGIORE TOSELLI,11.867802,43.453342
051002,AR,AREZZO,SAN POLO,VIA MANCINI,11.911592,43.483136
051002,AR,AREZZO,,VIA MANCINI,11.911664,43.483441
051002,AR,AREZZO,AREZZO,VIA MANNINI,11.881423,43.462983
051002,AR,AREZZO,AREZZO,VIA MARCANTONIO CESTI,11.877492,43.456904
051002,AR,AREZZO,AREZZO,VIA MARCELLO MALPIGHI,11.852287,43.471278
051002,AR,AREZZO,AREZZO,VIA MARCILLAT,11.876710,43.463001
051002,AR,AREZZO,AREZZO,VIA MARCO PERENNIO,11.871725,43.469205
051002,AR,AREZZO,AREZZO,VIA MARCO POLO,11.868818,43.456415
051002,AR,AREZZO,AREZZO,VIA MARGARITONE,11.880001,43.461237
051002,AR,AREZZO,AREZZO,VIA MARTE,11.860411,43.464966
051002,AR,AREZZO,AREZZO,VIA MARTIRI DI CIVITELLA,11.849150,43.464212
051002,AR,AREZZO,AREZZO,VIA MASACCIO,11.872356,43.458583
051002,AR,AREZZO,AREZZO,VIA MATRIGNANO,11.911538,43.450552
051002,AR,AREZZO,,VIA MATRIGNANO,11.910852,43.446100
051002,AR,AREZZO,,VIA MATTEO RICCI,11.868229,43.456343
051002,AR,AREZZO,AREZZO,VIA MEDAGLIE D'ORO,11.855391,43.458723
051002,AR,AREZZO,AREZZO,VIA MERCURIO,11.858593,43.464558
051002,AR,AREZZO,AREZZO,VIA MICHELANGELO DA CARAVAGGIO,11.888663,43.457516
051002,AR,AREZZO,AREZZO,VIA MINCIO,11.873952,43.454161
051002,AR,AREZZO,AREZZO,VIA MINO DA POPPI,11.887814,43.461115
051002,AR,AREZZO,AREZZO,VIA MODESTA ROSSI,11.883346,43.461540
051002,AR,AREZZO,AREZZO,VIA MOGADISCIO,11.864717,43.451703
051002,AR,AREZZO,AREZZO,VIA MOLINARA,11.822762,43.462263
051002,AR,AREZZO,I SADOTTI,VIA MOLINARA,11.835432,43.469193
051002,AR,AREZZO,,VIA MOLINARA,11.828613,43.468226
051002,AR,AREZZO,,VIA MONSIGNOR ANGIOLINO TAFI,11.900433,43.457972
051002,AR,AREZZO,AREZZO,VIA MONSIGNORE EMANUELE MIGNONE,11.901529,43.460824
051002,AR,AREZZO,AREZZO,VIA MONTANARA,11.871473,43.456765
051002,AR,AREZZO,AREZZO,VIA MONTE BIANCO,11.872988,43.468724
051002,AR,AREZZO,AREZZO,VIA MONTE CERVINO,11.873852,43.467577
051002,AR,AREZZO,AREZZO,VIA MONTE FALCO,11.872406,43.466883
051002,AR,AREZZO,AREZZO,VIA MONTE FALTERONA,11.874102,43.468406
051002,AR,AREZZO,AREZZO,VIA MONTEGRAPPA,11.876220,43.458070
051002,AR,AREZZO,AREZZO,VIA NAZARIO SAURO,11.875167,43.457831
051002,AR,AREZZO,AREZZO,VIA NESCHIETO,11.866389,43.479841
051002,AR,AREZZO,AREZZO,VIA NETTUNO,11.859066,43.464706
051002,AR,AREZZO,AREZZO,VIA NICCOLO' ARETINO,11.878906,43.460365
051002,AR,AREZZO,AREZZO,VIA NICCOLO' COPERNICO,11.868981,43.454732
051002,AR,AREZZO,AREZZO,VIA NICCOLO' PAGANINI,11.839526,43.474738
051002,AR,AREZZO,,VIA NICCOLO' PAGANINI,11.838440,43.469182
051002,AR,AREZZO,,VIA NOCETELLA,11.864739,43.370410
051002,AR,AREZZO,,VIA NOVA,11.852034,43.389635
051002,AR,AREZZO,AREZZO,VIA ORAZIO TIGRINI,11.892690,43.464465
051002,AR,AREZZO,,VIA OTTORINO RESPIGHI,11.838453,43.477818
051002,AR,AREZZO,,VIA PADRE CAPRARA,11.881247,43.470206
051002,AR,AREZZO,AREZZO,VIA PADRE TEODOSIO,11.864882,43.447997
051002,AR,AREZZO,AREZZO,VIA PALERMO,11.867770,43.470384
051002,AR,AREZZO,AREZZO,VIA PAOLO ARETINO,11.893117,43.464375
051002,AR,AREZZO,AREZZO,VIA PAOLO TOSCANELLI,11.865996,43.459365
051002,AR,AREZZO,AREZZO,VIA PAOLO UCCELLO,11.885841,43.459700
051002,AR,AREZZO,AREZZO,VIA PELLICCERIA,11.885581,43.464505
051002,AR,AREZZO,CHIASSA-TREGOZZANO,VIA PER BUSONI,11.893685,43.508540
051002,AR,AREZZO,,VIA PER BUSONI,11.895203,43.514086
051002,AR,AREZZO,AREZZO,VIA PERGOLESI,11.843629,43.476743
051002,AR,AREZZO,AREZZO,VIA PERUGIA,11.868788,43.470999
051002,AR,AREZZO,AREZZO,VIA PESCAIOLA,11.837553,43.462348
051002,AR,AREZZO,,VIA PESCAIOLA,11.837312,43.463865
051002,AR,AREZZO,AREZZO,VIA PESCAIOLINA,11.883560,43.463876
051002,AR,AREZZO,AREZZO,VIA PESCIONI,11.884962,43.463226
051002,AR,AREZZO,AREZZO,VIA PIANA,11.885347,43.462466
051002,AR,AREZZO,AREZZO,VIA PIAVE,11.876514,43.458202
051002,AR,AREZZO,AREZZO,VIA PIEMONTE,11.875315,43.471571
051002,AR,AREZZO,AREZZO,VIA PIER LODOVICO OCCHINI,11.895250,43.464555
051002,AR,AREZZO,AREZZO,VIA PIERLUIGI DA PALESTRINA,11.887087,43.470567
051002,AR,AREZZO,AREZZO,VIA PIERO CALAMANDREI,11.840817,43.461673
051002,AR,AREZZO,AREZZO,VIA PIERO GOBETTI,11.834204,43.459643
051002,AR,AREZZO,AREZZO,VIA PIETRAMALA,11.885185,43.469960
051002,AR,AREZZO,AREZZO,VIA PIETRO ARETINO,11.882488,43.461382
051002,AR,AREZZO,AREZZO,VIA PIETRO BENVENUTI,11.877998,43.473559
051002,AR,AREZZO,AREZZO,VIA PIETRO BONAMICI,11.905834,43.458323
051002,AR,AREZZO,AREZZO,VIA PIETRO LORENZETTI,11.887699,43.457976
051002,AR,AREZZO,AREZZO,VIA PIETRO MASCAGNI,11.843262,43.475345
051002,AR,AREZZO,AREZZO,VIA PIETRO MORI,11.855527,43.459150
051002,AR,AREZZO,AREZZO,VIA PIETRO NENNI,11.865625,43.461411
051002,AR,AREZZO,AREZZO,VIA PIETRO PANCRAZI,11.903479,43.459489
051002,AR,AREZZO,AREZZO,VIA PIEVAN LANDI,11.860922,43.445823
051002,AR,AREZZO,AREZZO,VIA PIO BORRI,11.883386,43.461992
051002,AR,AREZZO,AREZZO,VIA PIONTA,11.868720,43.458972
051002,AR,AREZZO,AREZZO,VIA PISANO GIOVANNI E NICOLA,11.887238,43.458441
051002,AR,AREZZO,AREZZO,VIA PITAGORA,11.861905,43.470333
051002,AR,AREZZO,AREZZO,VIA PLUTONE,11.858003,43.464611
051002,AR,AREZZO,AREZZO,VIA PO,11.873167,43.454788
051002,AR,AREZZO,AREZZO,VIA POGGIO BRACCIOLINI,11.893329,43.464770
051002,AR,AREZZO,SAN FABIANO,VIA POGGIO MENDICO,11.902470,43.473576
051002,AR,AREZZO,,VIA POGGIO MENDICO,11.901642,43.473215
051002,AR,AREZZO,,VIA POLICIANO,11.854479,43.392816
051002,AR,AREZZO,AREZZO,VIA PORTA BUIA,11.876558,43.465600
051002,AR,AREZZO,AREZZO,VIA PORTA SAN BIAGIO,11.883463,43.470526
051002,AR,AREZZO,AREZZO,VIA POZZO NUOVO,11.852389,43.420169
051002,AR,AREZZO,PATRIGNONE,VIA POZZO NUOVO,11.852734,43.498672
051002,AR,AREZZO,AREZZO,VIA PRATOMAGNO,11.871399,43.468737
051002,AR,AREZZO,AREZZO,VIA PROVENZA,11.878430,43.456781
051002,AR,AREZZO,AREZZO,VIA QUATTRO NOVEMBRE,11.869549,43.452789
051002,AR,AREZZO,,VIA RAFFAELLO SANZIO,11.892299,43.455932
051002,AR,AREZZO,,VIA RENO,11.877388,43.455325
051002,AR,AREZZO,AREZZO,VIA RICASOLI,11.882805,43.466696
051002,AR,AREZZO,AREZZO,VIA RIO GROSSO,11.870237,43.377221
051002,AR,AREZZO,,VIA RIPA OLMO,11.840655,43.430910
051002,AR,AREZZO,AREZZO,VIA RISTORO D'AREZZO,11.888115,43.458642
051002,AR,AREZZO,AREZZO,VIA RODI,11.883571,43.461095
051002,AR,AREZZO,AREZZO,VIA ROMA,11.879668,43.462365
051002,AR,AREZZO,AREZZO,VIA ROMAGNA,11.873156,43.471872
051002,AR,AREZZO,AREZZO,VIA ROMANA,11.864107,43.449906
051002,AR,AREZZO,AREZZO,VIA RUGGERO LEONCAVALLO,11.844240,43.474821
051002,AR,AREZZO,AREZZO,VIA RUGGINAIA,11.914323,43.459266
051002,AR,AREZZO,AREZZO,VIA SALA VECCHIA,11.877083,43.449251
051002,AR,AREZZO,AREZZO,VIA SALMI,11.906713,43.457393
051002,AR,AREZZO,AREZZO,VIA SALVADORI,11.881304,43.443558
051002,AR,AREZZO,AREZZO,VIA SALVATORE QUASIMODO,11.858088,43.455706
051002,AR,AREZZO,AREZZO,VIA SALVI CASTELLUCCI,11.888384,43.460463
051002,AR,AREZZO,,VIA SALVINO SALVINI,11.902822,43.457297
051002,AR,AREZZO,AREZZO,VIA SAMUEL MORSE,11.843825,43.471667
051002,AR,AREZZO,AREZZO,VIA SAN BERNARDINO DA SIENA,11.883387,43.453666
051002,AR,AREZZO,AREZZO,VIA SAN CLEMENTE,11.879952,43.470667
051002,AR,AREZZO,AREZZO,VIA SAN DOMENICO,11.880654,43.469309
051002,AR,AREZZO,SAN FABIANO,VIA SAN FABIANO,11.902362,43.473639
051002,AR,AREZZO,AREZZO,VIA SAN FRANCESCO,11.880925,43.464317
051002,AR,AREZZO,AREZZO,VIA SAN GIOVANNI DECOLLATO,11.878450,43.462054
051002,AR,AREZZO,AREZZO,VIA SAN LEO,11.841087,43.474905
051002,AR,AREZZO,AREZZO,VIA SAN LORENTINO,11.877100,43.468157
051002,AR,AREZZO,AREZZO,VIA SAN LORENZO,11.886098,43.463543
051002,AR,AREZZO,AREZZO,VIA SAN NICCOLO',11.885107,43.463725
051002,AR,AREZZO,AREZZO,VIA SAN PERGENTINO,11.862821,43.471425
051002,AR,AREZZO,AREZZO,VIA SANTA FLORA,11.922025,43.450228
051002,AR,AREZZO,AREZZO,VIA SANTA MARIA DELLE GRAZIE,11.886924,43.448718
051002,AR,AREZZO,AREZZO,VIA SANTE TANI,11.885004,43.461125
051002,AR,AREZZO,AREZZO,VIA SANTI DI TITO,11.876007,43.462875
051002,AR,AREZZO,AREZZO,VIA SASSOVERDE,11.881424,43.467876
051002,AR,AREZZO,AREZZO,VIA SATURNO,11.859529,43.465156
051002,AR,AREZZO,,VIA SELVETELLA,11.869220,43.367659
051002,AR,AREZZO,,VIA SER PETRACCOLO,11.879667,43.462686
051002,AR,AREZZO,,VIA SERGIO RAMELLI,11.849317,43.476481
051002,AR,AREZZO,AREZZO,VIA SETERIA,11.883387,43.464745
051002,AR,AREZZO,AREZZO,VIA SETTE PONTI,11.859169,43.482067
051002,AR,AREZZO,,VIA SETTE PONTI,11.849884,43.487079
051002,AR,AREZZO,AREZZO,VIA SETTEPONTI,11.870544,43.476379
051002,AR,AREZZO,AREZZO,VIA SICILIA,11.873403,43.472743
051002,AR,AREZZO,AREZZO,VIA SILVESTRO LEGA,11.891472,43.452649
051002,AR,AREZZO,AREZZO,VIA SIMONE MARTINI,11.893726,43.439951
051002,AR,AREZZO,,VIA SIMONE MARTINI,11.897844,43.442487
051002,AR,AREZZO,AREZZO,VIA SIRIO,11.853408,43.464049
051002,AR,AREZZO,AREZZO,VIA SOTTO LA VOLTA,11.883909,43.462994
051002,AR,AREZZO,AREZZO,VIA SPINELLO,11.877423,43.461313
051002,AR,AREZZO,,VIA STAZIONE OVEST,11.862013,43.373284
051002,AR,AREZZO,AREZZO,VIA STOPPANI,11.858439,43.472252
051002,AR,AREZZO,,VIA STROPPIELLO,11.870674,43.504912
051002,AR,AREZZO,AREZZO,VIA TAGLIAMENTO,11.876923,43.454718
051002,AR,AREZZO,AREZZO,VIA TANARO,11.875907,43.455001
051002,AR,AREZZO,AREZZO,VIA TEOFILO TORRI,11.882276,43.453999
051002,AR,AREZZO,AREZZO,VIA TICINO,11.872916,43.456183
051002,AR,AREZZO,AREZZO,VIA TIEPOLO,11.887391,43.456180
051002,AR,AREZZO,AREZZO,VIA TIZIANO VECELLO,11.890699,43.457621
051002,AR,AREZZO,AREZZO,VIA TOLLETTA,11.879685,43.463822
051002,AR,AREZZO,AREZZO,VIA TOMMASO EDISON,11.843962,43.466268
051002,AR,AREZZO,AREZZO,VIA TOMMASO PERELLI,11.904317,43.458816
051002,AR,AREZZO,AREZZO,VIA TOMMASO SGRICCI,11.902067,43.459350
051002,AR,AREZZO,AREZZO,VIA TORRE ROSSI,11.884884,43.465007
051002,AR,AREZZO,AREZZO,VIA TORTAIA,11.861735,43.454113
051002,AR,AREZZO,AREZZO,VIA TORTELLI GIOVANNI,11.877878,43.453257
051002,AR,AREZZO,AREZZO,VIA TRASIMENO,11.876886,43.457451
051002,AR,AREZZO,AREZZO,VIA TRENTO E TRIESTE,11.891087,43.460936
051002,AR,AREZZO,AREZZO,VIA TRIPOLI,11.863042,43.450472
051002,AR,AREZZO,,VIA TULLIO INNOCENTI,11.899306,43.457676
051002,AR,AREZZO,AREZZO,VIA TULLIO LEVI CIVITA,11.863662,43.468226
051002,AR,AREZZO,AREZZO,VIA UBALDO PASQUI,11.871818,43.454485
051002,AR,AREZZO,AREZZO,VIA UGO FOSCOLO,11.866555,43.449044
051002,AR,AREZZO,,VIA UGO VIVIANI,11.909835,43.460808
051002,AR,AREZZO,AREZZO,VIA UGUCCIONE DELLA FAGGIUOLA,11.862892,43.462634
051002,AR,AREZZO,AREZZO,VIA UMBERTO BOCCIONI,11.890962,43.453265
051002,AR,AREZZO,AREZZO,VIA UMBERTO TAVANTI,11.900136,43.460711
051002,AR,AREZZO,AREZZO,VIA UMBRIA,11.874033,43.470157
051002,AR,AREZZO,AREZZO,VIA URANO,11.859407,43.465273
051002,AR,AREZZO,AREZZO,VIA USO DI MARE,11.868719,43.457554
051002,AR,AREZZO,AREZZO,VIA USODIMARE ANTONIOTTO,11.868695,43.457869
051002,AR,AREZZO,,VIA VACCHERECCIA,11.497674,43.552092
051002,AR,AREZZO,AREZZO,VIA VASCO DA GAMA,11.866392,43.457707
051002,AR,AREZZO,AREZZO,VIA VECCHIA,11.879422,43.471033
051002,AR,AREZZO,AREZZO,VIA VENTI SETTEMBRE,11.879308,43.468406
051002,AR,AREZZO,AREZZO,VIA VICCHIO,11.910098,43.451937
051002,AR,AREZZO,,VIA VICCHIO,11.909627,43.451722
051002,AR,AREZZO,AREZZO,VIA VINCENZO BELLINI,11.843406,43.476600
051002,AR,AREZZO,AREZZO,VIA VINCENZO FUNGHINI,11.905205,43.457758
051002,AR,AREZZO,AREZZO,VIA VINCENZO MONTI,11.857766,43.448292
051002,AR,AREZZO,AREZZO,VIA VINCENZO PARISI,11.856544,43.459131
051002,AR,AREZZO,AREZZO,VIA VINCENZO POLIDORI,11.894589,43.462512
051002,AR,AREZZO,AREZZO,VIA VIOLA,11.877830,43.379491
051002,AR,AREZZO,AREZZO,VIA VITTORIO ALFIERI,11.860676,43.454474
051002,AR,AREZZO,AREZZO,VIA VITTORIO CARPACCIO,11.887576,43.454588
051002,AR,AREZZO,AREZZO,VIA VITTORIO FOSSOMBRONI,11.877011,43.474214
051002,AR,AREZZO,AREZZO,VIA VITTORIO VENETO,11.873008,43.456924
051002,AR,AREZZO,AREZZO,VIA X DICEMBRE 1948,11.870456,43.453544
051002,AR,AREZZO,AREZZO,VIA XX SETTEMBRE,11.879486,43.468404
051002,AR,AREZZO,AREZZO,VIA XXV APRILE,11.882882,43.456927
051002,AR,AREZZO,AREZZO,VIALE ANDREA SANSOVINO,11.887105,43.462088
051002,AR,AREZZO,AREZZO,VIALE ANTONIO GRAMSCI,11.895134,43.449060
051002,AR,AREZZO,,VIALE B. DA MAIANO,11.886126,43.453761
051002,AR,AREZZO,,VIALE BENEDETTO DA MAIANO,11.886126,43.453761
051002,AR,AREZZO,AREZZO,VIALE BERNARDO DOVIZI,11.876778,43.470129
051002,AR,AREZZO,AREZZO,VIALE BRUNO BUOZZI,11.887773,43.464396
051002,AR,AREZZO,AREZZO,VIALE DANTE,11.862789,43.453354
051002,AR,AREZZO,AREZZO,VIALE DON MINZONI,11.859823,43.466977
051002,AR,AREZZO,,VIALE FILIPPO TURATI,11.870991,43.483491
051002,AR,AREZZO,,VIALE FRATELLI ROSSELLI,11.870653,43.449857
051002,AR,AREZZO,AREZZO,VIALE GAETANO SALVEMINI,11.854894,43.468906
051002,AR,AREZZO,AREZZO,VIALE GIACOMO MATTEOTTI,11.888083,43.462196
051002,AR,AREZZO,AREZZO,VIALE GIOTTO,11.887640,43.456279
051002,AR,AREZZO,,VIALE GIOVANNI AMENDOLA,11.864084,43.474393
051002,AR,AREZZO,AREZZO,VIALE JOHN KENNEDY,11.866397,43.458071
051002,AR,AREZZO,,VIALE LEONARDO DA VINCI,11.875563,43.450235
051002,AR,AREZZO,AREZZO,VIALE LUCA SIGNORELLI,11.885627,43.460099
051002,AR,AREZZO,AREZZO,VIALE LUIGI CITTADINI,11.873273,43.461779
051002,AR,AREZZO,AREZZO,VIALE MAGINARDO,11.873951,43.460354
051002,AR,AREZZO,AREZZO,VIALE MECENATE,11.880430,43.456825
051002,AR,AREZZO,AREZZO,VIALE MICHELANGELO,11.878494,43.459893
051002,AR,AREZZO,AREZZO,VIALE PIERO DELLA FRANCESCA,11.874043,43.463554
051002,AR,AREZZO,AREZZO,VIALE PIETRO LORENZETTI,11.885557,43.459150
051002,AR,AREZZO,AREZZO,VIALE SANTA MARGHERITA,11.878969,43.473311
051002,AR,AREZZO,,VICOLO APPUNTELLATO,11.884312,43.462960
051002,AR,AREZZO,,VICOLO ARCO,11.884519,43.465127
051002,AR,AREZZO,AREZZO,VICOLO CAVALLO,11.879718,43.470827
051002,AR,AREZZO,AREZZO,VICOLO DEI CAVALLANTI,11.877858,43.462290
051002,AR,AREZZO,AREZZO,VICOLO DEL CAPITANO ARDELLI,11.881937,43.463088
051002,AR,AREZZO,AREZZO,VICOLO DEL CAVALLO,11.884416,43.465142
051002,AR,AREZZO,AREZZO,VICOLO DEL FANALE,11.878742,43.468605
051002,AR,AREZZO,AREZZO,VICOLO DEL MARCIANELLO,11.879222,43.466963
051002,AR,AREZZO,AREZZO,VICOLO DELLA DEA,11.881686,43.466240
051002,AR,AREZZO,AREZZO,VICOLO DELLA PALESTRA,11.876004,43.468730
051002,AR,AREZZO,AREZZO,VICOLO DELLE TERME,11.887382,43.463635
051002,AR,AREZZO,AREZZO,VICOLO DELL'ORTO,11.885992,43.462419
051002,AR,AREZZO,AREZZO,VICOLO PIETRO DA CORTONA,11.878807,43.462458
051002,AR,AREZZO,AREZZO,VIGNALE,11.847122,43.444044
051002,AR,AREZZO,FUSATONE-MOLIN BIANCO,VIGNALE,11.845180,43.449741
051002,AR,AREZZO,,VIGNALE,11.843772,43.448461
051002,AR,AREZZO,AREZZO,VILLA MORI,11.860491,43.439826
051002,AR,AREZZO,AREZZO,VILLAGGIO CHIMERA,11.872775,43.473251
051002,AR,AREZZO,,VILLAGGIO COLOMBO,11.865549,43.454461
051002,AR,AREZZO,,VILLAGGIO DANTE,11.862948,43.453971
051002,AR,AREZZO,AREZZO,VILLALBA,11.867184,43.434435
051002,AR,AREZZO,AREZZO,VIUCOLA DI POGGIOMONDO,11.918780,43.454582
051002,AR,AREZZO,,VIUCOLA DI POGGIOMONDO,11.923790,43.455404
051002,AR,AREZZO,PRATANTICO-INDICATORE,ZONA B,11.797142,43.483363
051002,AR,AREZZO,,ZONA B,11.812923,43.488256
051002,AR,AREZZO,PRATANTICO-INDICATORE,ZONA C,11.797557,43.481914
051002,AR,AREZZO,PRATANTICO-INDICATORE,ZONA D,11.801346,43.477369
051002,AR,AREZZO,,ZONA D,11.802317,43.475668
051002,AR,AREZZO,PRATANTICO-INDICATORE,ZONA E,11.801270,43.479623
051002,AR,AREZZO,,ZONA E,11.799019,43.478823
051002,AR,AREZZO,PRATANTICO-INDICATORE,ZONA F,11.799607,43.480439
051002,AR,AREZZO,PRATANTICO-INDICATORE,ZONA G,11.797142,43.483363
051002,AR,AREZZO,,ZONA G,11.791260,43.480729
051002,AR,AREZZO,PRATANTICO-INDICATORE,ZONA I,11.797142,43.483363
051002,AR,AREZZO,,ZONA I,11.791260,43.480729
051002,AR,AREZZO,AREZZO,ZONA INDUSTRIALE,11.829445,43.427766
051002,AR,AREZZO,AREZZO,,11.896494,43.464889
051002,AR,AREZZO,GORGONE - MARMORINO,,11.910115,43.439673
051002,AR,AREZZO,LA COSTA,,11.795328,43.457028
051002,AR,AREZZO,,,11.940649,43.439974
051003,AR,BADIA TEDALDA,CA' DI PIETRO,CA' DI PIETRO,12.215771,43.798375
051003,AR,BADIA TEDALDA,ROFELLE-CA'GIOVANICOLA,CA' GIOVANNICOLA,12.162716,43.741629
051003,AR,BADIA TEDALDA,ROFELLE-CA' LUPARDI,CA' LUPARDI,12.171056,43.738417
051003,AR,BADIA TEDALDA,CA' RAFFAELLO,LOCALITA' CA' RAFFAELLO,12.210783,43.783917
051003,AR,BADIA TEDALDA,ROFELLE,LOCALITA' CASTELLO,12.168956,43.734379
051003,AR,BADIA TEDALDA,IL POGGIO,LOCALITA' IL POGGIO,12.115756,43.713988
051003,AR,BADIA TEDALDA,,LOCALITA' MONTEFORTINO,12.243862,43.702417
051003,AR,BADIA TEDALDA,,LOCALITÀ MONTEVIALE,12.183253,43.696512
051003,AR,BADIA TEDALDA,SAN PATRIGNANO,LOCALITA' SAN PATRIGNANO,12.176385,43.724481
051003,AR,BADIA TEDALDA,SANTA SOFIA,LOCALITA' SANTA SOFIA,12.197915,43.788032
051003,AR,BADIA TEDALDA,,LOCALITÀ SANTA SOFIA,12.201713,43.783550
051003,AR,BADIA TEDALDA,SANT'ANDREA,LOCALITA' SANT'ANDREA,12.262211,43.703514
051003,AR,BADIA TEDALDA,STIAVOLA,LOCALITA' STIAVOLA,12.210143,43.699494
051003,AR,BADIA TEDALDA,SVOLTA DEL PODERE,LOCALITA' SVOLTA DEL PODERE,12.138150,43.703277
051003,AR,BADIA TEDALDA,VALLUNGA,LOCALITA' VALLUNGA,12.204792,43.778197
051003,AR,BADIA TEDALDA,BADIA TEDALDA,PIAZZA DEI TEDALDI,12.185018,43.709097
051003,AR,BADIA TEDALDA,,PIAZZA FRATELLI BIMBI,12.184666,43.708092
051003,AR,BADIA TEDALDA,BADIA TEDALDA,PIAZZA LEONARDO BONAFEDE,12.184133,43.709156
051003,AR,BADIA TEDALDA,BADIA TEDALDA,SALITA AL CASTELLO,12.185557,43.708988
051003,AR,BADIA TEDALDA,ARSICCI,STRADA COMUNALE DI ARSICCI,12.110855,43.713268
051003,AR,BADIA TEDALDA,IL POGGIO,STRADA COMUNALE DI ARSICCI,12.116185,43.713995
051003,AR,BADIA TEDALDA,,STRADA COMUNALE DI ARSICCI,12.111010,43.713872
051003,AR,BADIA TEDALDA,CAPRILE,STRADA COMUNALE DI CAPRILE,12.118825,43.719442
051003,AR,BADIA TEDALDA,,STRADA COMUNALE DI CAPRILE,12.116874,43.719967
051003,AR,BADIA TEDALDA,CA' RAFFAELLO,STRADA COMUNALE DI CICOGNAIA,12.210682,43.785537
051003,AR,BADIA TEDALDA,,STRADA COMUNALE DI CICOGNAIA,12.224284,43.799900
051003,AR,BADIA TEDALDA,FRESCIANO,STRADA COMUNALE DI FRESCIANO,12.135744,43.726317
051003,AR,BADIA TEDALDA,,STRADA COMUNALE DI FRESCIANO,12.142173,43.725029
051003,AR,BADIA TEDALDA,CA' RAFFAELLO,STRADA COMUNALE DI MIRATOLLO,12.211052,43.782984
051003,AR,BADIA TEDALDA,,STRADA COMUNALE DI MONTEVIALE,12.182840,43.697190
051003,AR,BADIA TEDALDA,,STRADA COMUNALE DI PIANCASTELLANO,12.176111,43.733959
051003,AR,BADIA TEDALDA,MONTEBOTOLINO,STRADA COMUNALE DI ROFELLE,12.152445,43.731960
051003,AR,BADIA TEDALDA,ROFELLE,STRADA COMUNALE DI ROFELLE,12.168784,43.734751
051003,AR,BADIA TEDALDA,ROFELLE-CA' LUPARDI,STRADA COMUNALE DI ROFELLE,12.170925,43.738618
051003,AR,BADIA TEDALDA,ROFELLE-CA'GIOVANICOLA,STRADA COMUNALE DI ROFELLE,12.162487,43.741644
051003,AR,BADIA TEDALDA,SAN PATRIGNANO,STRADA COMUNALE DI ROFELLE,12.176149,43.724287
051003,AR,BADIA TEDALDA,,STRADA COMUNALE DI ROFELLE,12.170887,43.737055
051003,AR,BADIA TEDALDA,,STRADA COMUNALE DI SANTA SOFIA,12.202603,43.782459
051003,AR,BADIA TEDALDA,PRATIEGHI,STRADA COMUNALE DI VALDAZZE,12.103133,43.735787
051003,AR,BADIA TEDALDA,SERRETTE,STRADA COMUNALE TRAMARECCHIA,12.180097,43.713638
051003,AR,BADIA TEDALDA,,STRADA COMUNALE TRAMARECCHIA,12.178729,43.713505
051003,AR,BADIA TEDALDA,,STRADA PROVINCIALE ALTO MARECCHIA (N.53),12.121974,43.718506
051003,AR,BADIA TEDALDA,CA' RAFFAELLO,STRADA STATALE MARECCHIA (N.258),12.210280,43.783906
051003,AR,BADIA TEDALDA,VALLUNGA,STRADA STATALE MARECCHIA (N.258),12.204841,43.778374
051003,AR,BADIA TEDALDA,,STRADA STATALE MARECCHIA (N.258),12.201172,43.768181
051003,AR,BADIA TEDALDA,,STRADA VECCHIA DI COCCHIOLA,12.144845,43.710548
051003,AR,BADIA TEDALDA,,STRADA VICINALE CA' BARCELLI,12.200059,43.782311
051003,AR,BADIA TEDALDA,BADIA TEDALDA,VIA ALPE DELLA LUNA,12.184886,43.707667
051003,AR,BADIA TEDALDA,,VIA CAMPANILE,12.183961,43.706801
051003,AR,BADIA TEDALDA,BADIA TEDALDA,VIA CONSOLARE RIMINESE,12.185292,43.709300
051003,AR,BADIA TEDALDA,BADIA TEDALDA,VIA DEI PRATI,12.187314,43.705483
051003,AR,BADIA TEDALDA,BADIA TEDALDA,VIA DEL CASTELLO,12.187496,43.706995
051003,AR,BADIA TEDALDA,BADIA TEDALDA,VIA DEL POZZO VECCHIO,12.186198,43.709399
051003,AR,BADIA TEDALDA,BADIA TEDALDA,VIA ERMENEGILDO RICCI,12.185133,43.706338
051003,AR,BADIA TEDALDA,,VIA ERMENEGILDO RICCI,12.186497,43.705106
051003,AR,BADIA TEDALDA,BADIA TEDALDA,VIA GIACOMO BONI,12.185386,43.709361
051003,AR,BADIA TEDALDA,BADIA TEDALDA,VIA GUIDO MONACO,12.184895,43.708819
051003,AR,BADIA TEDALDA,BADIA TEDALDA,VIA MAGGIORE,12.183369,43.709377
051003,AR,BADIA TEDALDA,,VIA MAGGIORE,12.183146,43.709844
051003,AR,BADIA TEDALDA,BADIA TEDALDA,VIA MANSUETO DOTTI,12.184171,43.709025
051003,AR,BADIA TEDALDA,ORTALE,VIA ORTALE,12.201471,43.785298
051003,AR,BADIA TEDALDA,SANTA SOFIA,VIA ORTALE,12.199025,43.787658
051003,AR,BADIA TEDALDA,,VIA ORTALE,12.200534,43.785051
051003,AR,BADIA TEDALDA,PRATIEGHI,VIA PRATIEGHI,12.101531,43.738270
051003,AR,BADIA TEDALDA,,VIA PRATIEGHI,12.100251,43.739274
051003,AR,BADIA TEDALDA,SERRETTE,VIA SERRETTE,12.179285,43.713123
051003,AR,BADIA TEDALDA,BADIA TEDALDA,VIALE FOSCO MONTINI,12.187193,43.706225
051003,AR,BADIA TEDALDA,,VIALE FOSCO MONTINI,12.188596,43.705985
051004,AR,BIBBIENA,,CENTRO BANZENA,11.859007,43.717684
051004,AR,BIBBIENA,,CENTRO FARNETA,11.795226,43.738731
051004,AR,BIBBIENA,SOCI,CORSO ANTONIO GRAMSCI,11.810501,43.736105
051004,AR,BIBBIENA,SOCI,FRAZIONE SOCI,11.812035,43.729526
051004,AR,BIBBIENA,,FRAZIONE SOCI,11.810420,43.732819
051004,AR,BIBBIENA,CAMPI,LOCALITA' CAMPI,11.856263,43.698218
051004,AR,BIBBIENA,,LOCALITA' CAMPI,11.865016,43.701168
051004,AR,BIBBIENA,,LOCALITÀ CAMPRENA,11.814486,43.721754
051004,AR,BIBBIENA,,LOCALITA' FARNETA,11.796410,43.735615
051004,AR,BIBBIENA,,LOCALITÀ FERRANTINA,11.806248,43.706321
051004,AR,BIBBIENA,,LOCALITA' FREGGINA,11.824273,43.767567
051004,AR,BIBBIENA,,LOCALITA' GELLO,11.902554,43.722036
051004,AR,BIBBIENA,,LOCALITA' GRESSA,11.845337,43.731425
051004,AR,BIBBIENA,,LOCALITA' IL CASTELLO,11.902554,43.722036
051004,AR,BIBBIENA,,LOCALITA' MARENA,11.845337,43.731425
051004,AR,BIBBIENA,PARTINA,LOCALITA' MOLINO,11.820861,43.749058
051004,AR,BIBBIENA,,LOCALITÀ PALAZZETTO,11.806957,43.702002
051004,AR,BIBBIENA,,LOCALITA' PARTINA,11.827608,43.755225
051004,AR,BIBBIENA,PIAN DEL PONTE,LOCALITA' PIAN DEL PONTE,11.860944,43.771064
051004,AR,BIBBIENA,,LOCALITA' PIAN DEL PONTE,11.859528,43.778595
051004,AR,BIBBIENA,,LOCALITÀ PIANACCI,11.808706,43.717790
051004,AR,BIBBIENA,,LOCALITA' PODERA MAIOLI,11.902554,43.722036
051004,AR,BIBBIENA,,LOCALITA' POGGIOLO,11.830888,43.731010
051004,AR,BIBBIENA,SERRAVALLE,LOCALITA' SERRAVALLE,11.839312,43.775714
051004,AR,BIBBIENA,,LOCALITA' TRAMOGGIONO,11.902554,43.722036
051004,AR,BIBBIENA,,NUCLEO FREGGINA,11.820241,43.759409
051004,AR,BIBBIENA,,NUCLEO GIONA DI SOTTO,11.882443,43.739257
051004,AR,BIBBIENA,,NUCLEO POGGIOLO,11.826876,43.728834
051004,AR,BIBBIENA,,NUCLEO POLLINO,11.832160,43.687364
051004,AR,BIBBIENA,BIBBIENA,PIAZZA AVIS,11.807664,43.696477
051004,AR,BIBBIENA,SOCI,PIAZZA CHIESA NUOVA,11.811064,43.735558
051004,AR,BIBBIENA,SOCI,PIAZZA CHIESA VECCHIA,11.813917,43.736424
051004,AR,BIBBIENA,BIBBIENA,PIAZZA DELLA RESISTENZA,11.817879,43.693046
051004,AR,BIBBIENA,SERRAVALLE,PIAZZA FABBRI,11.838792,43.776242
051004,AR,BIBBIENA,BIBBIENA,PIAZZA GIACOMO MATTEOTTI,11.815905,43.694049
051004,AR,BIBBIENA,SERRAVALLE,PIAZZA GIACOMO MATTEOTTI,11.843379,43.773203
051004,AR,BIBBIENA,SOCI,PIAZZA GIUSEPPE GARIBALDI,11.812911,43.735796
051004,AR,BIBBIENA,CAMPI,PIAZZA I MAGGIO,11.855497,43.697969
051004,AR,BIBBIENA,,PIAZZA I MAGGIO,11.858343,43.700824
051004,AR,BIBBIENA,SERRAVALLE,PIAZZA INCHISA,11.839225,43.776748
051004,AR,BIBBIENA,BIBBIENA,PIAZZA LEONFRANCO FERRI,11.818233,43.695949
051004,AR,BIBBIENA,PARTINA,PIAZZA MONTINI,11.820861,43.749058
051004,AR,BIBBIENA,,PIAZZA PALAGI,11.810680,43.696438
051004,AR,BIBBIENA,BIBBIENA,PIAZZA ROMA,11.817322,43.694404
051004,AR,BIBBIENA,BIBBIENA,PIAZZA STAZIONE,11.809954,43.693419
051004,AR,BIBBIENA,BIBBIENA,PIAZZA TARLATI,11.817567,43.695483
051004,AR,BIBBIENA,,PIAZZA UMBERTO,11.813372,43.736071
051004,AR,BIBBIENA,SOCI,PIAZZA XIII APRILE,11.811968,43.733741
051004,AR,BIBBIENA,BIBBIENA,PIAZZETTA CAMAIANI,11.817328,43.695230
051004,AR,BIBBIENA,BIBBIENA,PIAZZETTA POLTRI,11.817707,43.694289
051004,AR,BIBBIENA,BIBBIENA,PIAZZETTA TENENTE MARIO PIERAZZUOLI,11.817152,43.695369
051004,AR,BIBBIENA,BANZENA,STRADA COMUNALE BANZENA,11.867484,43.719418
051004,AR,BIBBIENA,MARCIANO,STRADA COMUNALE DI MARCIANO,11.834116,43.740986
051004,AR,BIBBIENA,,STRADA COMUNALE DI MARCIANO,11.831819,43.739890
051004,AR,BIBBIENA,,STRADA COMUNALE GIONA,11.872953,43.724244
051004,AR,BIBBIENA,,STRADA COMUNALE QUERCETO,11.854907,43.709723
051004,AR,BIBBIENA,,STRADA PROVINCIALE ALTO CORSALONE (N.62),11.874703,43.721763
051004,AR,BIBBIENA,,STRADA PROVINCIALE DI CAMALDOLI (N.67),11.836646,43.778095
051004,AR,BIBBIENA,PIAN DEL PONTE,STRADA PROVINCIALE DI SERRAVALLE (N.68),11.860332,43.771613
051004,AR,BIBBIENA,,STRADA PROVINCIALE DI SERRAVALLE (N.68),11.858644,43.772219
051004,AR,BIBBIENA,CASAMICCIOLA,STRADA STATALE DELLA CONSUMA (N.70),11.804876,43.699849
051004,AR,BIBBIENA,,STRADA STATALE DELLA CONSUMA (N.70),11.805280,43.700727
051004,AR,BIBBIENA,,STRADA STATALE DELLA VERNA (N.208),11.856409,43.713564
051004,AR,BIBBIENA,BIBBIENA,STRADA STATALE UMBRO CASENTINESE ROMAGNOLA (N.71),11.810751,43.696041
051004,AR,BIBBIENA,PARTINA,STRADA STATALE UMBRO CASENTINESE ROMAGNOLA (N.71),11.823243,43.750193
051004,AR,BIBBIENA,PIAN DEL PONTE,STRADA STATALE UMBRO CASENTINESE ROMAGNOLA (N.71),11.860927,43.770958
051004,AR,BIBBIENA,SOCI,STRADA STATALE UMBRO CASENTINESE ROMAGNOLA (N.71),11.812676,43.735951
051004,AR,BIBBIENA,,STRADA STATALE UMBRO CASENTINESE ROMAGNOLA (N.71),11.816508,43.727650
051004,AR,BIBBIENA,SOCI,VIA ADRIANO BOCCI,11.811598,43.734703
051004,AR,BIBBIENA,SOCI,VIA ALDO MORO,11.819599,43.737579
051004,AR,BIBBIENA,SOCI,VIA ALESSANDRINI,11.819726,43.736151
051004,AR,BIBBIENA,SOCI,VIA ANTONIO GRAMSCI,11.810924,43.737447
051004,AR,BIBBIENA,BIBBIENA,VIA ANTONIO LIPPI,11.819606,43.697085
051004,AR,BIBBIENA,SOCI,VIA ARCHIANO,11.817160,43.737484
051004,AR,BIBBIENA,BIBBIENA,VIA ARCHITETTO EMILIO MARCUCCI,11.817129,43.694943
051004,AR,BIBBIENA,BIBBIENA,VIA ARCHITETTO GALLI,11.817888,43.694080
051004,AR,BIBBIENA,BIBBIENA,VIA ARCHITETTO MINDRIA,11.818706,43.697705
051004,AR,BIBBIENA,BIBBIENA,VIA ARNO,11.813989,43.692310
051004,AR,BIBBIENA,BIBBIENA,VIA BERNARDO MARTELLINI,11.817427,43.693973
051004,AR,BIBBIENA,BIBBIENA,VIA BOSCO CASINA,11.813081,43.697276
051004,AR,BIBBIENA,BIBBIENA,VIA BURRAIA,11.809975,43.697780
051004,AR,BIBBIENA,BIBBIENA,VIA CACCIATORE,11.813038,43.695082
051004,AR,BIBBIENA,SOCI,VIA CADUTI PARTIGIANI,11.816563,43.737565
051004,AR,BIBBIENA,BIBBIENA,VIA CAGGIO,11.822018,43.704879
051004,AR,BIBBIENA,SOCI,VIA CANDOLESI,11.811106,43.724076
051004,AR,BIBBIENA,,VIA CANDOLESI,11.811935,43.723714
051004,AR,BIBBIENA,BIBBIENA,VIA CAPITANO GIOVAN PIERO MARCUCCI POLTRI,11.810332,43.693814
051004,AR,BIBBIENA,BIBBIENA,VIA CAPPUCCI,11.816720,43.694833
051004,AR,BIBBIENA,BIBBIENA,VIA CARLO BENI,11.817254,43.698602
051004,AR,BIBBIENA,BIBBIENA,VIA CARLO MARX,11.812052,43.701839
051004,AR,BIBBIENA,SOCI,VIA CASA SILLI,11.809691,43.728369
051004,AR,BIBBIENA,CASAMICCIOLA,VIA CASAMICCIOLA,11.802691,43.698624
051004,AR,BIBBIENA,BIBBIENA,VIA CASTELLARE,11.818851,43.700726
051004,AR,BIBBIENA,SOCI,VIA CEDRO,11.811026,43.738807
051004,AR,BIBBIENA,BIBBIENA,VIA COCCAIA,11.822037,43.706391
051004,AR,BIBBIENA,BIBBIENA,VIA COLOMBAIA,11.813017,43.693414
051004,AR,BIBBIENA,BIBBIENA,VIA CROCIFISSO,11.815679,43.693083
051004,AR,BIBBIENA,BIBBIENA,VIA CUCULO,11.820893,43.704530
051004,AR,BIBBIENA,BIBBIENA,VIA D'ARCENA,11.816182,43.691246
051004,AR,BIBBIENA,SERRAVALLE,VIA DEI VILLINI,11.838476,43.777573
051004,AR,BIBBIENA,,VIA DEI VILLINI,11.838152,43.779307
051004,AR,BIBBIENA,SERRAVALLE,VIA DEL CASTELLO,11.842284,43.772864
051004,AR,BIBBIENA,,VIA DEL CASTELLO,11.840468,43.772369
051004,AR,BIBBIENA,SOCI,VIA DEL GIARDINO,11.815027,43.736385
051004,AR,BIBBIENA,,VIA DEL LANIFICIO,11.813289,43.736495
051004,AR,BIBBIENA,SOCI,VIA DEL PRATO,11.818035,43.737782
051004,AR,BIBBIENA,BIBBIENA,VIA DEL TANNINO,11.812691,43.692943
051004,AR,BIBBIENA,,VIA DEL TESSITORE,11.815688,43.737792
051004,AR,BIBBIENA,SOCI,VIA DELLA FIERA,11.816156,43.736890
051004,AR,BIBBIENA,BIBBIENA,VIA DELLA FORNACE,11.811923,43.696328
051004,AR,BIBBIENA,SOCI,VIA DELLA RENA,11.810245,43.734236
051004,AR,BIBBIENA,,VIA DELLA REPUBBLICA,11.810652,43.733604
051004,AR,BIBBIENA,SERRAVALLE,VIA DELLA RIMEMBRANZA,11.839048,43.776128
051004,AR,BIBBIENA,,VIA DELLA RIMEMBRANZA,11.838754,43.775032
051004,AR,BIBBIENA,BIBBIENA,VIA DELLA ROBBIA,11.813266,43.699161
051004,AR,BIBBIENA,BIBBIENA,VIA DELLA VERNA,11.823457,43.709829
051004,AR,BIBBIENA,,VIA DELLA VERNA,11.826539,43.712020
051004,AR,BIBBIENA,,VIA DELL'ARTIGIANATO,11.808864,43.711216
051004,AR,BIBBIENA,SOCI,VIA DELLE CASE OPERAIE,11.811957,43.735580
051004,AR,BIBBIENA,BIBBIENA,VIA DELLE MONACHE,11.820164,43.692625
051004,AR,BIBBIENA,,VIA DELL'OROLOGIO,11.814028,43.737314
051004,AR,BIBBIENA,SOCI,VIA DELL'ORTO,11.813829,43.735585
051004,AR,BIBBIENA,TERROSSOLA,VIA DI TERROSSOLA,11.822892,43.674699
051004,AR,BIBBIENA,,VIA DI TERROSSOLA,11.825017,43.673434
051004,AR,BIBBIENA,,VIA DON GIOVANNI MINZONI,11.809037,43.726529
051004,AR,BIBBIENA,BIBBIENA,VIA DON MAZZOLENI,11.811865,43.699367
051004,AR,BIBBIENA,SOCI,VIA DON MILANI,11.809479,43.725294
051004,AR,BIBBIENA,BIBBIENA,VIA DOVIZI,11.816703,43.694276
051004,AR,BIBBIENA,SOCI,VIA EMMA PERODI,11.819999,43.738768
051004,AR,BIBBIENA,BIBBIENA,VIA ENRICO TOTI,11.816531,43.695345
051004,AR,BIBBIENA,SOCI,VIA EUGENIO CURIEL,11.815693,43.739232
051004,AR,BIBBIENA,SOCI,VIA FALCE TORTA,11.809286,43.734924
051004,AR,BIBBIENA,SOCI,VIA FALCETORTA,11.808055,43.735616
051004,AR,BIBBIENA,SOCI,VIA FALTERONA,11.813321,43.733806
051004,AR,BIBBIENA,SOCI,VIA FIORENTINA,11.811434,43.736541
051004,AR,BIBBIENA,,VIA FIORENTINA,11.803716,43.737539
051004,AR,BIBBIENA,BIBBIENA,VIA FONTE CASTELLARE,11.813871,43.702156
051004,AR,BIBBIENA,BIBBIENA,VIA FONTE CAVALLI,11.820292,43.696611
051004,AR,BIBBIENA,BIBBIENA,VIA FRANCESCO BERNI,11.818120,43.694595
051004,AR,BIBBIENA,SOCI,VIA FRATELLI CERVI,11.815011,43.738682
051004,AR,BIBBIENA,BIBBIENA,VIA FRATELLI ROSSELLI,11.822461,43.707230
051004,AR,BIBBIENA,PARTINA,VIA GIACOMO MATTEOTTI,11.821765,43.749277
051004,AR,BIBBIENA,,VIA GIOGIO LA PIRA,11.811737,43.702205
051004,AR,BIBBIENA,SOCI,VIA GIOTTO,11.814108,43.732099
051004,AR,BIBBIENA,BIBBIENA,VIA GIOVANNI AMENDOLA,11.808298,43.697267
051004,AR,BIBBIENA,BIBBIENA,VIA GIOVANNI BOCCACCIO,11.820382,43.698101
051004,AR,BIBBIENA,SOCI,VIA GIUSEPPE BOCCI,11.812523,43.734339
051004,AR,BIBBIENA,BIBBIENA,VIA GIUSEPPE BORGHI,11.817535,43.694374
051004,AR,BIBBIENA,,VIA GIUSEPPE DI VITTORIO,11.812452,43.693473
051004,AR,BIBBIENA,SOCI,VIA GIUSEPPE MAZZINI,11.811697,43.737972
051004,AR,BIBBIENA,SOCI,VIA GIUSEPPE VERDI,11.811382,43.737115
051004,AR,BIBBIENA,,VIA G.P. MARCUCCI,11.810298,43.693795
051004,AR,BIBBIENA,BIBBIENA,VIA GUALCHIERE,11.809415,43.698171
051004,AR,BIBBIENA,BIBBIENA,VIA GUIDI,11.818222,43.693599
051004,AR,BIBBIENA,SOCI,VIA GUIDO ROSSA,11.818360,43.736938
051004,AR,BIBBIENA,SOCI,VIA I MAGGIO,11.811310,43.732995
051004,AR,BIBBIENA,,VIA IL PESCO,11.842144,43.777921
051004,AR,BIBBIENA,BIBBIENA,VIA INDUSTRIALE,11.814006,43.701157
051004,AR,BIBBIENA,SOCI,VIA IV NOVEMBRE,11.809722,43.735081
051004,AR,BIBBIENA,BIBBIENA,VIA JACOPO LIGOZZI,11.815787,43.698617
051004,AR,BIBBIENA,LA FOSSA,VIA LA FOSSA,11.840940,43.781747
051004,AR,BIBBIENA,SERRAVALLE,VIA LA FOSSA,11.839193,43.777313
051004,AR,BIBBIENA,,VIA LA FOSSA,11.839415,43.780018
051004,AR,BIBBIENA,PARTINA,VIA LA PIEVE,11.817665,43.746629
051004,AR,BIBBIENA,,VIA LA QUERCIA,11.826658,43.709442
051004,AR,BIBBIENA,,VIA LE CHIANI,11.804867,43.693020
051004,AR,BIBBIENA,SOCI,VIA LIBERTA',11.819030,43.736948
051004,AR,BIBBIENA,SOCI,VIA LICIO NENCETTI,11.814651,43.738880
051004,AR,BIBBIENA,BIBBIENA,VIA LUIGI GORI,11.815924,43.694567
051004,AR,BIBBIENA,BIBBIENA,VIA MARIO BECCARO,11.816762,43.693050
051004,AR,BIBBIENA,BIBBIENA,VIA MICHELANGELO BUONARROTI,11.815400,43.698670
051004,AR,BIBBIENA,SOCI,VIA MICHELANGELO BUONARROTI,11.812299,43.737732
051004,AR,BIBBIENA,,VIA MICHELANGIOLO,11.812391,43.738213
051004,AR,BIBBIENA,SOCI,VIA MICHELINI,11.813843,43.733234
051004,AR,BIBBIENA,BIBBIENA,VIA MOCARECCIA,11.821173,43.695316
051004,AR,BIBBIENA,BIBBIENA,VIA MOLINO,11.811744,43.691499
051004,AR,BIBBIENA,BIBBIENA,VIA NANDO DALLA CHIESA,11.820839,43.694068
051004,AR,BIBBIENA,BIBBIENA,VIA NAVE,11.815028,43.691193
051004,AR,BIBBIENA,,VIA NAVE,11.826203,43.685630
051004,AR,BIBBIENA,SOCI,VIA NAZIONALE,11.811144,43.728763
051004,AR,BIBBIENA,BIBBIENA,VIA ORATORIO,11.818035,43.698321
051004,AR,BIBBIENA,SOCI,VIA PALMIRO TOGLIATTI,11.809252,43.738181
051004,AR,BIBBIENA,BIBBIENA,VIA PAOLO BORSELLINO,11.820646,43.693685
051004,AR,BIBBIENA,SOCI,VIA PETRARCA,11.811218,43.735094
051004,AR,BIBBIENA,,VIA PIAN DELLE VIGNE,11.823976,43.751231
051004,AR,BIBBIENA,BIBBIENA,VIA PIETRO NENNI,11.811708,43.694124
051004,AR,BIBBIENA,BIBBIENA,VIA POCCIANTI,11.817263,43.694559
051004,AR,BIBBIENA,BIBBIENA,VIA POGGETTO PODERINA,11.822268,43.699650
051004,AR,BIBBIENA,BIBBIENA,VIA POGGIO,11.817568,43.697203
051004,AR,BIBBIENA,BIBBIENA,VIA POGGIO MENDICO,11.825582,43.710856
051004,AR,BIBBIENA,BIBBIENA,VIA POLLINO,11.822638,43.691809
051004,AR,BIBBIENA,POLLINO,VIA POLLINO,11.824734,43.688767
051004,AR,BIBBIENA,SOCI,VIA PONTE,11.808669,43.735684
051004,AR,BIBBIENA,SOCI,VIA ROMA,11.810936,43.734502
051004,AR,BIBBIENA,,VIA ROSA LUXEMBURG,11.811609,43.703418
051004,AR,BIBBIENA,BIBBIENA,VIA ROSA SCOTI FRANCESCHI,11.817722,43.695362
051004,AR,BIBBIENA,PARTINA,VIA ROSA SCOTI FRANCESHI,11.822920,43.750839
051004,AR,BIBBIENA,SOCI,VIA ROSSINI GIOACCHINO,11.810675,43.738244
051004,AR,BIBBIENA,,VIA SAN FRANCESCO,11.824413,43.749181
051004,AR,BIBBIENA,BIBBIENA,VIA SAN ROCCO,11.821145,43.697472
051004,AR,BIBBIENA,BIBBIENA,VIA SAN VINCENZO,11.815273,43.699503
051004,AR,BIBBIENA,BIBBIENA,VIA SANARELLI,11.812406,43.696751
051004,AR,BIBBIENA,,VIA SANDRO PERTINI,11.827892,43.683852
051004,AR,BIBBIENA,BIBBIENA,VIA SANTA MARIA DEL SASSO,11.820673,43.695957
051004,AR,BIBBIENA,SANTA MARIA DEL SASSO,VIA SANTA MARIA DEL SASSO,11.829289,43.701029
051004,AR,BIBBIENA,,VIA SANTA MARIA DEL SASSO,11.828565,43.700605
051004,AR,BIBBIENA,PARTINA,VIA SANTA RITA,11.822736,43.751428
051004,AR,BIBBIENA,BIBBIENA,VIA SANT'ANDREA,11.820294,43.691930
051004,AR,BIBBIENA,POLLINO,VIA SANT'ANDREA,11.824290,43.688623
051004,AR,BIBBIENA,BIBBIENA,VIA SEGHERIA,11.808627,43.695471
051004,AR,BIBBIENA,BIBBIENA,VIA SELVAGGIA MAZZONI,11.818035,43.693842
051004,AR,BIBBIENA,BIBBIENA,VIA SOPRA ANGELI,11.822934,43.698610
051004,AR,BIBBIENA,BIBBIENA,VIA TIMOSSI,11.807964,43.698514
051004,AR,BIBBIENA,BIBBIENA,VIA TRE OLMI,11.823471,43.708930
